Id,Label,GeoCategory,Affilations,Main Role,All Roles,Debut Year,Debut Region,Debut at Private Studio,lat,lon
0,"王滨","Northeast","Northeast Film Studio (2) & Changchun Film Studio (4)","Director","Director (4) & Scriptwriter (2) & Acting (1)",1949,"Northeast","False",43.20651291173163,126.24362914436779
1,"于敏","Northeast","Northeast Film Studio (4) & Changchun Film Studio (2)","Scriptwriter","Scriptwriter (6)",1949,"Northeast","False",44.75950121463936,125.6568660322038
2,"王家乙","Northeast","Northeast Film Studio (5) & Changchun Film Studio (8) & Beijing Film Studio (1) & Garance Productions (France) (1) & Emei Film Studio (1)","Director","Acting (2) & Director (11) & Scriptwriter (5)",1949,"Northeast","False",43.04056419286514,124.43388622672994
3,"吕班","Northeast","Northeast Film Studio (4) & Beijing Film Studio (2) & Central Newsreel and Documentary Film Studio (1) & Changchun Film Studio (3)","Director","Acting (2) & 副导演 (1) & Director (8) & Scriptwriter (2)",1949,"Northeast","False",44.304878686177844,126.11718422630888
4,"江浩","Northeast","Northeast Film Studio (3)","Acting","剧务 (1) & Acting (2) & 剧务主任 (1) & 副制片主任 (1)",1949,"Northeast","False",44.18675539825401,124.72139670628896
5,"陈强","Northeast","Northeast Film Studio (4) & Beijing Film Studio (4) & Changchun Film Studio (6) & Tianma Film Studio (2)","Acting","Acting (16)",1949,"Northeast","False",42.93973692926584,126.20077922399454
6,"杜德夫","Northeast","Northeast Film Studio (9) & Changchun Film Studio (2) & Beijing Film Studio (5)","Acting","Acting (16)",1949,"Northeast","False",43.835739408388775,125.45405329139005
7,"于洋","Beijing","Northeast Film Studio (5) & Beijing Film Studio (12) & Shanghai Film Studio (1) & Changchun Film Studio (1) & August First Film Studio (1) & Pearl River Film Studio (1)","Acting","Acting (21)",1949,"Northeast","False",38.93284004693213,116.48999862202308
8,"鲁非","Beijing","Northeast Film Studio (9) & Beijing Film Studio (11) & Tianjin Film Studio (1) & Xinjiang Film Studio (1)","Acting","Acting (20)",1949,"Northeast","False",40.64761117835766,116.2419875588972
9,"傅杰","Northeast","Northeast Film Studio (6) & Beijing Film Studio (4)","Acting","Acting (7) & Director (3) & Scriptwriter (1)",1949,"Northeast","False",44.37591394776729,124.49290947354457
10,"袁月华","Beijing","Northeast Film Studio (1) & Beijing Film Studio (2)","副导演","Acting (1) & 副导演 (2)",1949,"Northeast","False",39.19282536462944,117.25435765843118
11,"高均","Northeast","Northeast Film Studio (5) & Changchun Film Studio (2)","Acting","Acting (7)",1949,"Northeast","False",44.6889548071089,124.97276186319438
12,"王利夫","Northeast","Northeast Film Studio (3) & Changchun Film Studio (3)","Acting | 副导演","Acting (3) & 副导演 (3)",1949,"Northeast","False",44.51774145170232,124.92619190683925
13,"金风","Northeast","Northeast Film Studio (3) & Beijing Film Studio (1) & Wuhan Film Studio (1)","Acting","Acting (4) & Scriptwriter (1)",1949,"Northeast","False",44.21558864357919,125.64893899195965
14,"武愚","Northeast","Northeast Film Studio (5) & Changchun Film Studio (8)","剧务主任","Acting (2) & 场务 (3) & 剧务 (1) & 剧务主任 (5) & 制片 (3)",1949,"Northeast","False",43.82271378104603,124.44365210229331
15,"柳塘","Northeast","Northeast Film Studio (2) & Changchun Film Studio (1)","Acting","Acting (2) & 剧务主任 (1)",1949,"Northeast","False",43.2660517614296,125.2683743706735
16,"王春英","Northeast","Northeast Film Studio (5) & Changchun Film Studio (14) & Emei Film Studio (1)","Acting","Acting (19)",1949,"Northeast","False",44.08677236195025,125.73873501222144
17,"孙笑非","Northeast","Northeast Film Studio (9) & Changchun Film Studio (12) & Moscow Film Studio (1)","Acting","Acting (21)",1949,"Northeast","False",42.918738463268085,126.07431666544208
18,"张敬平","Northeast","Northeast Film Studio (5) & Changchun Film Studio (3)","Acting","Acting (5) & 制片主任 (2) & 制片 (1)",1949,"Northeast","False",43.381567119551086,125.64958353921878
19,"梁音","Northeast","Northeast Film Studio (7) & Changchun Film Studio (18) & Harbin Film Studio (1)","Acting","Acting (25)",1949,"Northeast","False",44.31594098151992,125.32892869258012
20,"苗灵","Northeast","Northeast Film Studio (7) & Beijing Film Studio (1) & Changchun Film Studio (2)","Acting","Acting (10)",1949,"Northeast","False",43.883978167219055,124.87063119980984
21,"于致中","Northeast","Northeast Film Studio (1)","Acting","Acting (1)",1949,"Northeast","False",44.50138575870402,124.72150814687832
22,"蔺娜","Northeast","Northeast Film Studio (4) & Changchun Film Studio (3)","Acting","服装 (1) & Acting (7)",1949,"Northeast","False",44.1596212221444,125.86975810030408
23,"包杰","Northeast","Northeast Film Studio (6) & Changchun Film Studio (11) & Moscow Film Studio (1)","摄影","摄影 (16) & 总摄影 (1)",1949,"Northeast","False",43.01544609238692,124.98612191187716
24,"刘学尧","Northeast","Northeast Film Studio (8) & Changchun Film Studio (10) & Inner Mongolia Film Studio (1)","美术","美术 (6) & 美术设计 (4) & 布景设计 (3) & 美工设计 (3) & 美工 (2)",1949,"Northeast","False",44.5334064940232,125.80248825718988
25,"何士德","Beijing / Northeast","Northeast Film Studio (2) & Central Newsreel and Documentary Film Studio (1) & Beijing Film Studio (1)","作曲","作曲 (3) & 音乐顾问 (1)",1949,"Northeast","False",-0.2095080240526015,-0.3004512260708272
26,"吕宪昌","Beijing","Northeast Film Studio (4) & Beijing Film Studio (17) & Wuhan Film Studio (1)","录音","录音 (21)",1949,"Northeast","False",39.46353673727752,115.62281266819423
27,"马天文","Northeast","Northeast Film Studio (7)","照明","照明 (7)",1949,"Northeast","False",43.62191354845417,125.35242757963606
28,"世为","Northeast","Northeast Film Studio (3) & Shanghai Film Studio (1)","特技","特技 (3) & 特技设计 (1)",1949,"Northeast","False",43.116058856083114,124.48427433186123
29,"宋杰","Northeast","Northeast Film Studio (4) & Beijing Film Studio (1)","场记","场记 (4) & 副导演 (1)",1949,"Northeast","False",43.90993487000191,124.82141273621355
30,"潘英","Northeast","Northeast Film Studio (7) & Changchun Film Studio (7)","剧务主任","场务 (2) & 剧务 (1) & 剧务主任 (11)",1949,"Northeast","False",42.85551143226841,124.99830547485924
31,"董志国","Northeast","Northeast Film Studio (2) & Changchun Film Studio (4)","剧务主任","场务 (1) & 剧务主任 (5)",1949,"Northeast","False",44.39341103068871,125.1499399595597
32,"牟华","Northeast","Northeast Film Studio (1)","服装","服装 (1)",1949,"Northeast","False",43.53933819631993,125.91346009034564
33,"毕泽普","Northeast","Northeast Film Studio (5) & Changchun Film Studio (6) & Moscow Film Studio (1) & Xi'an Film Studio (1)","化妆","化妆 (11)",1949,"Northeast","False",42.869381302826106,126.11391031230279
34,"贾益三","Northeast","Northeast Film Studio (4) & Changchun Film Studio (1)","道具","道具 (5)",1949,"Northeast","False",43.85156639060599,125.89713788850561
35,"鲁潍","Northeast","Northeast Film Studio (1)","洗印","洗印 (1)",1949,"Northeast","False",43.043227719652926,124.95340239330372
36,"安芙梅","Northeast","Northeast Film Studio (5)","剪接","剪接 (5)",1949,"Northeast","False",44.208376588711054,126.22304873302221
37,"祖述志","Northeast","Northeast Film Studio (3) & Changchun Film Studio (4)","剪接","剪接 (5) & 剪辑 (2)",1949,"Northeast","False",44.32386801063313,124.93642589876211
38,"成荫","Beijing","Northeast Film Studio (3) & Shanghai Film Studio (1) & Beijing Film Studio (4) & August First Film Studio (1)","Director","Director (9) & Scriptwriter (4)",1949,"Northeast","False",40.624818265969786,115.9748205384057
39,"林克","Northeast","Northeast Film Studio (1) & Changchun Film Studio (7) & Inner Mongolia Film Studio (1)","副导演","Acting (1) & 副导演 (7)",1949,"Northeast","False",44.486488640520925,125.91773336192445
40,"关贵祥","Northeast","Northeast Film Studio (1)","Acting","Acting (1)",1949,"Northeast","False",42.88205514144681,125.97480575059924
41,"武兆堤","Northeast","Northeast Film Studio (3) & Changchun Film Studio (8) & Xi'an Film Studio (1)","Director","Acting (2) & Scriptwriter (4) & 副导演 (1) & Director (7)",1949,"Northeast","False",42.95190282336552,126.20280956092664
42,"塞声","Northeast","Northeast Film Studio (2)","Acting","Acting (2)",1949,"Northeast","False",44.316149951054356,124.57929541395936
43,"孙辉","Northeast","Northeast Film Studio (1) & Changchun Film Studio (1)","摄影 | Acting","Acting (1) & 摄影 (1)",1949,"Northeast","False",43.13669590939846,126.06036144204683
44,"曹瑞","Beijing","Northeast Film Studio (1) & August First Film Studio (3)","Acting","Acting (4)",1949,"Northeast","False",39.184728925139105,115.9368020441169
45,"王冰","Beijing","Northeast Film Studio (1) & August First Film Studio (7)","Director","Acting (1) & Director (7) & Scriptwriter (1)",1949,"Northeast","False",39.18409900549658,115.90613421670156
46,"李司野","Beijing / Northeast","Northeast Film Studio (1) & August First Film Studio (1)","Acting","Acting (2)",1949,"Northeast","False",-0.23090728780778136,-0.19497271951419815
47,"苏里","Northeast","Northeast Film Studio (3) & Changchun Film Studio (7)","Director","Acting (2) & 副导演 (2) & Director (7)",1949,"Northeast","False",44.51000936010796,125.66868286619076
48,"李维新","Beijing / Northeast","Northeast Film Studio (1) & August First Film Studio (1)","Acting","Acting (2)",1949,"Northeast","False",-0.7769308387627649,-0.869618554975897
49,"李蒙","Northeast","Northeast Film Studio (1)","Acting","Acting (1)",1949,"Northeast","False",42.96075500732999,124.91483116817219
50,"马学海","Northeast","Northeast Film Studio (1)","Acting","Acting (1)",1949,"Northeast","False",44.06413183494067,124.52747648019401
51,"于钟黎","Northeast","Northeast Film Studio (1)","Acting","Acting (1)",1949,"Northeast","False",43.39507844200445,125.90295334778534
52,"文友","Beijing","Northeast Film Studio (1) & August First Film Studio (2)","Acting","Acting (3)",1949,"Northeast","False",40.3432353602914,115.45066680856657
53,"黎光","Northeast","Northeast Film Studio (1)","Acting","Acting (1)",1949,"Northeast","False",43.69439234065299,125.44391670326117
54,"王祖述","Northeast","Northeast Film Studio (1)","Acting","Acting (1)",1949,"Northeast","False",43.348048190876234,125.91686543264916
55,"张玉昆","Northeast","Northeast Film Studio (1) & Changchun Film Studio (1)","Acting","Acting (2)",1949,"Northeast","False",44.3462391345828,125.16492712035021
56,"邹继才","Northeast","Northeast Film Studio (1)","Acting","Acting (1)",1949,"Northeast","False",44.07078977932954,125.24071552331436
57,"王少梅","Shanghai (state)","Northeast Film Studio (1) & Shanghai Film Studio (1) & Haiyan Film Studio (1) & Hong Kong Dapeng Film Company (1)","Acting","Acting (3)",1949,"Northeast","False",30.772463704001744,121.2387215136435
58,"李锦富","Northeast","Northeast Film Studio (1)","Acting","Acting (1)",1949,"Northeast","False",43.79890888834917,125.94275187175911
59,"艾云鹏","Northeast","Northeast Film Studio (1)","Acting","Acting (1)",1949,"Northeast","False",44.75788674126196,126.30255543251874
60,"马玺林","Northeast","Northeast Film Studio (1)","Acting","Acting (1)",1949,"Northeast","False",44.11536690288919,125.03343820773462
61,"吴伯仁","Northeast","Northeast Film Studio (1)","Acting","Acting (1)",1949,"Northeast","False",44.29424447372556,125.6737364409177
62,"刘增文","Northeast","Northeast Film Studio (1)","Acting","Acting (1)",1949,"Northeast","False",44.416918538273364,124.57532093988321
63,"乔传荣","Northeast","Northeast Film Studio (1)","Acting","Acting (1)",1949,"Northeast","False",43.277838799844744,126.22105728446954
64,"周献","Northeast","Northeast Film Studio (1)","Acting","Acting (1)",1949,"Northeast","False",43.823710153057235,125.13779234560852
65,"丁克明","Northeast","Northeast Film Studio (1)","Acting","Acting (1)",1949,"Northeast","False",42.899919492393735,125.97918625254044
66,"王玉湖","Northeast","Northeast Film Studio (1)","Acting","Acting (1)",1949,"Northeast","False",42.82174452122137,125.34050865454691
67,"孟庆祥","Northeast","Northeast Film Studio (1)","Acting","Acting (1)",1949,"Northeast","False",42.81749904654474,125.97067457293514
68,"吴长龙","Northeast","Northeast Film Studio (1)","Acting","Acting (1)",1949,"Northeast","False",44.3042885479603,125.5797637222275
69,"成立业","Beijing","Northeast Film Studio (1) & August First Film Studio (5)","剧务主任","Acting (2) & 剧务主任 (5)",1949,"Northeast","False",39.40127777899308,117.33254440818031
70,"周顺礼","Northeast","Northeast Film Studio (1)","Acting","Acting (1)",1949,"Northeast","False",42.97712836804521,125.40906930049807
71,"李白水","Northeast","Northeast Film Studio (1)","Acting","Acting (1)",1949,"Northeast","False",43.91663608993379,125.88142429624395
72,"李光惠","Northeast","Northeast Film Studio (4) & Changchun Film Studio (13)","摄影","摄影 (17)",1949,"Northeast","False",44.45390570777389,124.98464823273136
73,"朱革","Northeast","Northeast Film Studio (4) & Central Newsreel and Documentary Film Studio (1)","布景设计","布景 (1) & 布景设计 (2) & 美工设计 (1) & 特技摄影 (1)",1949,"Northeast","False",43.02022800143097,126.21840092032886
74,"吴因","Northeast","Northeast Film Studio (1)","作曲","作曲 (1)",1949,"Northeast","False",44.791595373694115,125.48849939669888
75,"巩志伟","Beijing","Northeast Film Studio (1) & August First Film Studio (11)","作曲","作曲 (12)",1949,"Northeast","False",40.808788640672184,115.89896056770965
76,"张棣昌","Northeast","Northeast Film Studio (5) & Changchun Film Studio (12)","作曲","作曲 (17)",1949,"Northeast","False",43.702513882989514,125.50614580693653
77,"陈文渊","Northeast","Northeast Film Studio (6) & Changchun Film Studio (11)","录音","录音 (17)",1949,"Northeast","False",42.89274672484422,125.98469616551682
78,"陈田","Northeast","Northeast Film Studio (3)","照明","照明 (3)",1949,"Northeast","False",44.22807600186233,125.96313071648356
79,"李存邦","Northeast","Northeast Film Studio (21)","洗印","洗印 (21)",1949,"Northeast","False",44.327710133811244,125.10525835866706
80,"唐顺","Northeast","Northeast Film Studio (2)","洗印","洗印 (2)",1949,"Northeast","False",44.27084515068806,125.41378034822026
81,"贾文锦","Northeast","Northeast Film Studio (4)","剪接","剪接 (4)",1949,"Northeast","False",44.659872350734446,125.53333327151432
82,"王光彦","Northeast","Northeast Film Studio (3) & Beijing Film Studio (1)","剧务主任","剧务主任 (2) & 副导演 (1) & Director (1)",1949,"Northeast","False",43.05525035077196,126.22770416110936
83,"郭奕","Northeast","Northeast Film Studio (3)","场记","场记 (2) & 剧务 (1)",1949,"Northeast","False",44.76486475344326,125.25423209199785
84,"罗泰","Northeast","Northeast Film Studio (5) & Changchun Film Studio (4)","Acting","化妆 (1) & Acting (4) & 导演助理 (1) & 副导演 (2) & Scriptwriter (2)",1949,"Northeast","False",44.32367255786689,124.5339566410474
85,"许珂","Beijing","Northeast Film Studio (2) & Beijing Film Studio (5) & Anhui Film Studio (1)","Director","Director (7)",1949,"Northeast","False",39.41435695414537,116.33218072986868
86,"陈波儿","Northeast","Northeast Film Studio (1)","Scriptwriter","Scriptwriter (1)",1949,"Northeast","False",43.87342898440438,124.65973849975092
87,"张平","Beijing","Northeast Film Studio (12) & Beijing Film Studio (13) & August First Film Studio (1)","Acting","Acting (25) & 副导演 (1) & 歌唱者 (1)",1949,"Northeast","False",39.436988277633745,116.04340114155565
88,"王潍潍","Northeast","Northeast Film Studio (1)","Acting","Acting (1)",1949,"Northeast","False",43.901513938714196,126.23996787138607
89,"欧阳如秋","Northeast","Northeast Film Studio (3)","Acting","Acting (3)",1949,"Northeast","False",44.54118844216437,126.22237891714136
90,"张琪","Northeast","Northeast Film Studio (3) & Jiangnan Film Studio (1)","Acting","Acting (4)",1949,"Northeast","False",44.547782427665155,125.17600468838059
91,"于彦夫","Northeast","Northeast Film Studio (4) & Changchun Film Studio (9) & Central Newsreel and Documentary Film Studio (1) & Harbin Film Studio (1)","Director","剧务主任 (1) & Acting (1) & 副导演 (3) & Director (8) & Scriptwriter (2) & 作词 (1)",1949,"Northeast","False",43.691125351079485,125.53831498580455
92,"张莹","Northeast","Northeast Film Studio (6) & Changchun Film Studio (2) & Tianma Film Studio (1) & Beijing Film Studio (4)","Acting","Acting (13)",1949,"Northeast","False",44.01358997788399,126.18626571297644
93,"秋晨","Northeast","Northeast Film Studio (2)","Acting","Acting (2)",1949,"Northeast","False",43.429396358550875,125.68766212949369
94,"王炎","Northeast","Northeast Film Studio (3) & Shanghai Film Studio (2) & Changchun Film Studio (7)","Director","Acting (4) & 副导演 (4) & Director (6) & Scriptwriter (4)",1949,"Northeast","False",44.681731720825255,124.81841961667197
95,"陈克","Shanghai (state) / Northeast","Northeast Film Studio (4) & Shanghai Film Studio (3) & Haiyan Film Studio (1) & Pearl River Film Studio (1)","Acting","Acting (8) & Scriptwriter (1)",1949,"Northeast","False",0.28895587327064964,-0.003549615994782318
96,"荆杰","Northeast","Northeast Film Studio (1) & Changchun Film Studio (4)","Acting | 副导演","Acting (3) & 副导演 (3)",1949,"Northeast","False",43.77485042385697,124.48230559551885
97,"必克","Northeast","Northeast Film Studio (3)","Acting","Acting (3)",1949,"Northeast","False",43.887752282558864,125.38920884540806
98,"崔斌","Northeast","Northeast Film Studio (1)","Acting","Acting (1)",1949,"Northeast","False",43.26331270425256,125.31467126196799
99,"柳唐","Northeast","Northeast Film Studio (1)","Acting","Acting (1)",1949,"Northeast","False",44.67062343580366,126.07969318915225
100,"蓝旅","Northeast","Northeast Film Studio (1)","Acting","Acting (1)",1949,"Northeast","False",42.96987953270245,124.50127968889089
101,"傅宏","Northeast","Northeast Film Studio (6)","摄影","摄影 (6)",1949,"Northeast","False",43.859179174936195,125.21933332621123
102,"徐渭","Northeast","Northeast Film Studio (3) & Changchun Film Studio (8)","美术","布景 (1) & 布景设计 (2) & 美工设计 (1) & 美术设计 (1) & 美术 (4) & 美工 (2)",1949,"Northeast","False",43.1173262350612,126.05888756463119
103,"苏民","Beijing","Northeast Film Studio (2) & Beijing Film Studio (5) & Changchun Film Studio (1)","作曲","作曲 (8)",1949,"Northeast","False",40.806877885675405,116.1631170616886
104,"隋锡忠","Northeast","Northeast Film Studio (4) & Changchun Film Studio (10) & Moscow Film Studio (1)","录音","录音 (14)",1949,"Northeast","False",43.92649433340213,126.01905017475603
105,"包万伶","Northeast","Northeast Film Studio (1)","摄影助理","摄影助理 (1)",1949,"Northeast","False",44.589480365848395,124.9345297045642
106,"于方","Beijing","Northeast Film Studio (1) & Beijing Film Studio (3)","制片","录音助理 (1) & 制片 (3)",1949,"Northeast","False",40.384287200407975,115.54146203199781
107,"庞贵","Beijing / Northeast","Northeast Film Studio (2) & Beijing Film Studio (2)","特技","特技 (4)",1949,"Northeast","False",-0.8282552753116672,0.4663720707297303
108,"曾希忠","Northeast","Northeast Film Studio (5)","照明","照明 (5)",1949,"Northeast","False",43.08184749540538,124.87859490753983
109,"张朴实","Northeast","Northeast Film Studio (3)","场务","场务 (2) & 剧务 (1)",1949,"Northeast","False",44.375602224785126,125.27478284777754
110,"李慧颖","Northeast","Northeast Film Studio (3)","Acting","场记 (1) & Acting (2)",1949,"Northeast","False",43.04158472277845,126.08674801272399
111,"李影","Northeast","Northeast Film Studio (2)","Acting | 化妆","化妆 (1) & Acting (1)",1949,"Northeast","False",43.21513358570951,124.86359492528304
112,"薛雁","Northeast","Northeast Film Studio (4)","Acting","服装 (1) & Acting (3)",1949,"Northeast","False",43.12384774882698,125.87527876629322
113,"凌子风","Beijing","Northeast Film Studio (3) & Beijing Film Studio (5) & Shanghai Film Studio (2) & Haiyan Film Studio (1) & Tianjin Film Studio (1) & Hong Kong Jinsheng Film Company (1)","Director","Director (10) & Scriptwriter (3) & 艺术指导 (1)",1949,"Northeast","False",39.9012419969586,117.38945665437808
114,"翟强","Northeast","Northeast Film Studio (2)","Director","Director (2) & Acting (1)",1949,"Northeast","False",43.45186584084667,125.60373478285634
115,"颜一烟","Beijing","Northeast Film Studio (1) & Beijing Film Studio (3)","Scriptwriter","Scriptwriter (3) & Acting (1)",1949,"Northeast","False",40.506198659826076,116.50915434373547
116,"张铮","Shanghai (state) / Canton","Northeast Film Studio (1) & Shanghai Film Studio (1) & Jiangnan Film Studio (1) & Haiyan Film Studio (2) & Pearl River Film Studio (4) & Beijing Film Studio (2) & Da Guangming Film Company (1)","Acting","Acting (7) & 副导演 (1) & Director (4) & Scriptwriter (1)",1949,"Northeast","False",-0.7252898106999084,0.7346622182735583
117,"岳慎","Northeast","Northeast Film Studio (2)","Acting","Acting (2)",1949,"Northeast","False",44.05021369886264,125.30347381746603
118,"柏李","Shanghai (state)","Northeast Film Studio (1) & Shanghai Film Studio (2)","Acting","Acting (3)",1949,"Northeast","False",30.898855344373107,122.01211701288626
119,"秦布华","Northeast","Northeast Film Studio (1)","Acting","Acting (1)",1949,"Northeast","False",43.62286344925067,125.25674281235673
120,"周苏菲","Northeast","Northeast Film Studio (1)","Acting","Acting (1)",1949,"Northeast","False",44.31144877714517,126.14336035105957
121,"孙月枝","Northeast","Northeast Film Studio (3)","Acting","Acting (3)",1949,"Northeast","False",44.05758458568187,125.00389856265465
122,"周莹箴","Northeast","Northeast Film Studio (3) & Changchun Film Studio (8) & Moscow Film Studio (1)","剪辑","Acting (3) & 剪接 (3) & 剪辑 (5)",1949,"Northeast","False",43.42962432984695,125.17137136806771
123,"李超","Northeast","Northeast Film Studio (1)","Acting","Acting (1)",1949,"Northeast","False",43.30132175144373,124.93972852421295
124,"华永庄","Northeast","Northeast Film Studio (3) & Changchun Film Studio (3) & Xi'an Film Studio (3)","副导演","Acting (1) & 场记 (2) & 剧务主任 (1) & 副导演 (4) & Director (1)",1949,"Northeast","False",44.57012394401305,126.23266453478062
125,"王英","Northeast","Northeast Film Studio (5)","Acting","Acting (5)",1949,"Northeast","False",43.419394621283736,125.53423524674244
126,"李先觉","Xi'an","Northeast Film Studio (1) & Xi'an Film Studio (2) & Beijing Film Studio (1)","剧务主任","Acting (1) & 剧务主任 (2)",1949,"Northeast","False",33.93611981261056,108.78095134932167
127,"岳忠华","Northeast","Northeast Film Studio (1)","Acting","Acting (1)",1949,"Northeast","False",44.26972869471879,125.53227903236046
128,"刘武县","Northeast","Northeast Film Studio (4)","Acting","Acting (4)",1949,"Northeast","False",43.376657422947865,124.53623927092204
129,"牛景纯","Northeast","Northeast Film Studio (2) & Changchun Film Studio (5)","剧务主任","Acting (2) & 剧务主任 (3) & 剧务 (1) & 制片 (1)",1949,"Northeast","False",43.65577126976763,125.84975562131048
130,"张有慧","Northeast","Northeast Film Studio (1)","Acting","Acting (1)",1949,"Northeast","False",43.573568036678054,126.11651432072247
131,"杜凤侠","Northeast","Northeast Film Studio (3) & Beijing Film Studio (1) & Changchun Film Studio (2)","Acting","Acting (6)",1949,"Northeast","False",43.3106928814317,125.84556958915056
132,"刘晶昆","Northeast","Northeast Film Studio (2)","Acting","Acting (2)",1949,"Northeast","False",43.727027140522154,126.29120673201349
133,"关航","Northeast","Northeast Film Studio (2)","Acting","Acting (2)",1949,"Northeast","False",43.58305262044926,124.99436626158719
134,"钱江","Beijing","Northeast Film Studio (3) & Beijing Film Studio (9) & Wuhan Film Studio (1) & Xinjiang Film Studio (1)","摄影","摄影 (11) & 摄影指导 (1)",1949,"Northeast","False",39.09836389249158,116.54149175638324
135,"葛炎","Shanghai (state)","Northeast Film Studio (1) & Shanghai Film Studio (5) & Haiyan Film Studio (9)","作曲","作曲 (12) & 音乐顾问 (1) & 指挥 (1) & 编曲 (1) & Scriptwriter (1)",1949,"Northeast","False",30.688583175897637,122.0432886740903
136,"唐远之","Northeast","Northeast Film Studio (2)","剧务主任","剧务主任 (2)",1949,"Northeast","False",44.23565424228631,124.5735315039588
137,"刘力","Northeast","Northeast Film Studio (3) & Changchun Film Studio (6)","剧务主任","场记 (2) & 场务 (1) & 剧务主任 (3) & 助理导演 (1) & 制片 (2)",1949,"Northeast","False",44.720130762923134,126.00592990354647
138,"蔡光","Northeast","Northeast Film Studio (4) & Changchun Film Studio (14) & Inner Mongolia Film Studio (1) & Xi'an Film Studio (1)","特技设计","特技 (3) & 特技设计 (14) & 特技美术 (1)",1949,"Northeast","False",44.195458919914564,124.93311642921799
139,"苏云鹏","Northeast","Northeast Film Studio (3) & Changchun Film Studio (2)","道具","道具 (5)",1949,"Northeast","False",43.91606195309615,125.5826526539104
140,"李延江","Northeast","Northeast Film Studio (5) & Xi'an Film Studio (2) & Beijing Film Studio (1)","照明","照明 (7)",1949,"Northeast","False",44.022795224295194,125.19781805021536
141,"王文起","Northeast","Northeast Film Studio (6) & Changchun Film Studio (3) & Xi'an Film Studio (1)","照明","照明 (9)",1949,"Northeast","False",43.24862831977309,125.78655238329614
142,"汲永源","Northeast","Northeast Film Studio (3)","洗印","洗印 (3)",1949,"Northeast","False",42.92406044081596,125.34621839396195
143,"明伟","Northeast","Northeast Film Studio (7)","剪接","剪接 (7)",1949,"Northeast","False",44.2318579131744,126.21954313526719
144,"李玉英","Northeast","Northeast Film Studio (2)","剪接","剪接 (2)",1949,"Northeast","False",43.239751376064596,124.40043336487774
145,"冯白鲁","Northeast","Northeast Film Studio (2) & Changchun Film Studio (2)","Director","Director (4)",1949,"Northeast","False",43.53472030689353,124.7581478637405
146,"王震之","Northeast","Northeast Film Studio (3)","Scriptwriter","Scriptwriter (3)",1949,"Northeast","False",44.46725449225962,125.5365023097355
147,"于蓝","Beijing","Northeast Film Studio (1) & Shanghai Film Studio (1) & Beijing Film Studio (5)","Acting","Acting (6) & 副导演 (1)",1949,"Northeast","False",39.631790352314646,115.97837852159653
148,"安琪","Northeast","Northeast Film Studio (5) & Changchun Film Studio (4) & August First Film Studio (2)","Acting","Acting (11)",1949,"Northeast","False",44.61470789677265,124.50126716996131
149,"苏苓","Northeast","Northeast Film Studio (1)","Acting","Acting (1)",1949,"Northeast","False",44.720414184287925,124.62359480253316
150,"黄玲","Northeast","Northeast Film Studio (7) & Changchun Film Studio (7) & Harbin Film Studio (1)","Acting","Acting (14)",1949,"Northeast","False",43.05396464271721,125.13511898271359
151,"刘儒","Northeast","Northeast Film Studio (5) & Changchun Film Studio (10)","Acting","Acting (15)",1949,"Northeast","False",43.09745803967963,124.32393242557578
152,"马守清","Northeast","Northeast Film Studio (1)","摄影","摄影 (1)",1949,"Northeast","False",43.90201591823905,125.23944261567858
153,"高田","Shanghai (state)","Northeast Film Studio (3) & Shanghai Film Studio (3) & Haiyan Film Studio (6) & Jiangnan Film Studio (4) & Xinjiang Film Studio (1)","作曲","作曲 (16)",1949,"Northeast","False",31.806500401417516,121.20389562942593
154,"赵鸿钧","Northeast","Northeast Film Studio (3)","录音","录音 (3)",1949,"Northeast","False",42.884059675242945,125.02954294402922
155,"郑国恩","Beijing / Northeast","Northeast Film Studio (1) & Studio of Beijing Film Academy (1)","摄影 | 照明助理","照明助理 (1) & 摄影 (1)",1949,"Northeast","False",0.6142043376821784,-0.11048771844597916
156,"傅英杰","Beijing","Northeast Film Studio (1) & Beijing Film Studio (15) & Tianjin Film Studio (1) & Hong Kong Jinsheng Film Company (1) & Xinjiang Film Studio (1)","录音","录音助理 (1) & 录音 (15)",1949,"Northeast","False",39.70592882792171,116.06208940687037
157,"高振环","Northeast","Northeast Film Studio (1)","录音助理","录音助理 (1)",1949,"Northeast","False",43.834185808228526,124.62095167805899
158,"王永瑞","Northeast","Northeast Film Studio (2) & Changchun Film Studio (1) & Xi'an Film Studio (1)","置景","置景 (3)",1949,"Northeast","False",43.30682205611569,125.982669345804
159,"织田","Northeast","Northeast Film Studio (1)","特技","特技 (1)",1949,"Northeast","False",43.26197220703102,124.71470948320393
160,"阎永三","Northeast","Northeast Film Studio (1)","特技","特技 (1)",1949,"Northeast","False",42.94420628937652,124.47489226968105
161,"钱仲选","Northeast","Northeast Film Studio (11)","洗印","洗印 (11)",1949,"Northeast","False",43.87562269786686,125.79836689164128
162,"孙晓文","Northeast","Northeast Film Studio (1)","场记","场记 (1)",1949,"Northeast","False",43.297390694427676,124.35164224375428
163,"王岚","Northeast","Northeast Film Studio (2) & Kunlun Film Company (1) & Changjiang-Kunlun Associated Film Studio (1) & Shanghai Film Studio (4) & Changchun Film Studio (11) & Haiyan Film Studio (1) & Jiangnan Film Studio (2) & Datong Film Company (2) & 惠昌商务有限公司 (1) & Guotai Film Company (1) & 中央电影摄影场一厂 (1)","Acting","场务 (1) & Acting (15) & 副导演 (8) & Director (3)",1949,"Northeast","False",44.17346054008388,125.05033422684238
164,"董士忠","Northeast","Northeast Film Studio (3)","剧务 | 场务 | 剧务主任","场务 (1) & 剧务 (1) & 剧务主任 (1)",1949,"Northeast","False",43.18659808357658,124.40952696476211
165,"段明慨","Northeast","Northeast Film Studio (1)","医务顾问","医务顾问 (1)",1949,"Northeast","False",42.837145837307396,124.34709219029304
166,"尹升山","Northeast","Northeast Film Studio (26) & Changchun Film Studio (77) & Shanghai Film Studio (1) & Lanzhou Film Studio (1) & Harbin Film Studio (1) & Inner Mongolia Film Studio (1) & Xi'an Film Studio (2)","指挥","指挥 (105)",1949,"Northeast","False",42.86398894254961,124.35172649128333
167,"伊明","Beijing","Northeast Film Studio (1) & Beijing Film Studio (2)","Director","Director (3) & Scriptwriter (1)",1949,"Northeast","False",39.913394733803216,115.95084762246954
168,"姚向黎","Beijing","Northeast Film Studio (1) & Beijing Film Studio (4)","Acting","Acting (5)",1949,"Northeast","False",40.75222040857757,115.45409671638973
169,"刘西林","Northeast","Northeast Film Studio (1) & Changchun Film Studio (1)","Acting","Acting (2)",1949,"Northeast","False",44.58702993898249,125.90972305092386
170,"周克","Northeast","Northeast Film Studio (2) & Beijing Film Studio (1) & Changchun Film Studio (5)","Acting","Acting (8)",1949,"Northeast","False",43.51875204330603,124.8105366099091
171,"孙凤琴","Beijing / Northeast","Northeast Film Studio (2) & Shanghai Film Studio (1) & Beijing Film Studio (2) & Tianjin Film Studio (1)","Acting","Acting (5)",1949,"Northeast","False",-0.8392755491372605,-0.9249969242180152
172,"张路","Northeast","Northeast Film Studio (1)","Acting","Acting (1)",1949,"Northeast","False",43.418236835431316,125.48828109986789
173,"陈民魂","Northeast","Northeast Film Studio (1) & Beijing Film Studio (1) & Shanghai Film Studio (1) & Central Newsreel and Documentary Film Studio (1) & Changchun Film Studio (8) & Inner Mongolia Film Studio (1)","摄影","摄影 (12)",1949,"Northeast","False",43.21318027236338,125.13166309638886
174,"敬然","Northeast","Northeast Film Studio (6) & Changchun Film Studio (6)","剧务主任","剧务 (2) & Acting (2) & 剧务主任 (8) & 制片主任 (1)",1949,"Northeast","False",44.44496519730834,124.85793410097882
175,"董志围","Northeast","Northeast Film Studio (1)","剧务","剧务 (1)",1949,"Northeast","False",44.06355997518285,126.00180993534309
176,"俞翼如","Beijing","Northeast Film Studio (1) & Beijing Film Studio (16) & Garance Productions (France) (1) & Tianjin Film Studio (1) & Wuhan Film Studio (1)","美术","置景 (1) & 布景设计 (3) & 布景 (1) & 美工 (4) & 美术 (8)",1949,"Northeast","False",40.7108569303632,116.5023103311085
177,"佐临","Shanghai (private)","Wenhua Film Company (4) & Shanghai Film Studio (2) & Haiyan Film Studio (1)","Director","Director (7) & Scriptwriter (2)",1949,"Shanghai (private)","True",30.535768615259595,121.03306593187236
178,"赵钱孙","Shanghai (private)","Wenhua Film Company (1)","Acting","Acting (1)",1949,"Shanghai (private)","True",30.709925428098966,121.39980660822353
179,"程之","Shanghai (state)","Wenhua Film Company (11) & Shanghai Film Studio (5) & Haiyan Film Studio (2) & Tianma Film Studio (10) & Jiangnan Film Studio (2)","Acting","Acting (29) & 化妆 (4) & 解说 (1)",1949,"Shanghai (private)","True",31.004060959809344,122.28843184030009
180,"沈扬","Shanghai (private)","Wenhua Film Company (7) & Shanghai Film Studio (1) & 远东影业公司 (1) & Guotai Film Company (1)","Acting","Acting (10)",1949,"Shanghai (private)","True",31.290864577202782,120.76497719447502
181,"俞仲英","Shanghai (state)","Wenhua Film Company (8) & Shanghai Film Studio (2) & Tianma Film Studio (9) & Haiyan Film Studio (2)","Acting","Acting (8) & 副导演 (5) & Director (7)",1949,"Shanghai (private)","True",30.867827348098025,121.78156768251463
182,"田振东","Shanghai (private)","Wenhua Film Company (10) & Datong Film Company (1) & Kunlun Film Company (1) & 黎明影业公司 (1)","Acting","Acting (13)",1949,"Shanghai (private)","True",31.85783968515291,120.40364070902807
183,"崔超明","Shanghai (state)","Wenhua Film Company (11) & Shanghai Film Studio (2) & Haiyan Film Studio (2) & Tianma Film Studio (4) & Jiangnan Film Studio (7) & Changchun Film Studio (5)","Acting","Acting (31)",1949,"Shanghai (private)","True",30.507689137326313,121.52233164524375
184,"杨文龙","Shanghai (private)","Wenhua Film Company (1)","Acting","Acting (1)",1949,"Shanghai (private)","True",30.869088756763563,121.22759891203141
185,"蔡元元","Shanghai (state)","Wenhua Film Company (1) & Shanghai Film Studio (2) & Beijing Film Studio (1)","Acting","Acting (4)",1949,"Shanghai (private)","True",32.089613995254865,120.7464230811789
186,"李春英","Shanghai (private)","Wenhua Film Company (1)","Acting","Acting (1)",1949,"Shanghai (private)","True",31.261571423616974,120.48470134163823
187,"蔡松龄","Beijing","Wenhua Film Company (1) & Beijing Film Studio (2) & Tianjin Film Studio (1)","Acting","Acting (3)",1949,"Shanghai (private)","True",39.03223770293277,116.53737644538491
188,"黎频","Shanghai (private)","Wenhua Film Company (2) & Beijing Film Studio (1)","Acting","Acting (3)",1949,"Shanghai (private)","True",30.341429070480917,122.20994221846279
189,"杨肇文","Shanghai (private)","Wenhua Film Company (1)","Acting","Acting (1)",1949,"Shanghai (private)","True",31.988558822987137,120.55715724744961
190,"李煊","Shanghai (private)","Wenhua Film Company (1) & Guotai Film Company (2)","Acting","Acting (3)",1949,"Shanghai (private)","True",30.53804835415267,121.18013016772153
191,"周瑞德","Shanghai (private)","Wenhua Film Company (2)","Acting","Acting (2)",1949,"Shanghai (private)","True",30.945250087763284,120.96131444453353
192,"苏曼","Shanghai (private)","Wenhua Film Company (2) & Kunlun Film Company (3) & Changjiang-Kunlun Associated Film Studio (2) & Changchun Film Studio (1) & Haiyan Film Studio (1)","Acting","Acting (9)",1949,"Shanghai (private)","True",30.402648958719197,120.5250231252458
193,"李保罗","Shanghai (state)","Wenhua Film Company (1) & Guotai Film Company (7) & Shanghai Film Studio (4) & Haiyan Film Studio (12) & Tianma Film Studio (4) & Jiangnan Film Studio (8) & Datong Film Company (1) & 中央电影摄影场二厂 (2) & Kunlun Film Company (1) & 华东影片经理公司 (1)","Acting","Acting (40)",1949,"Shanghai (roc) / Shanghai (private)","True",30.544607872542652,122.31694566403236
194,"石灵","Shanghai (state)","Wenhua Film Company (7) & Northeast Film Studio (1) & Shanghai Film Studio (5) & Haiyan Film Studio (1) & Jiangnan Film Studio (1) & Tianma Film Studio (5)","Acting","Acting (19) & Scriptwriter (1)",1949,"Shanghai (private)","True",30.604143855082857,121.646975236753
195,"韩明德","Shanghai (private)","Wenhua Film Company (1) & Shanghai Film Studio (1) & Changjiang Film Studio (1)","服装","Acting (1) & 服装 (2)",1949,"Shanghai (private)","True",31.701240609065,122.15833630988575
196,"张劭","Shanghai (private)","Wenhua Film Company (2) & Kunlun Film Company (1)","Acting","Acting (3)",1949,"Shanghai (private)","True",30.32734846892354,120.93799465323637
197,"王敏","Shanghai (private)","Wenhua Film Company (3) & Shanghai Film Studio (1) & Guotai Film Company (1) & Anhui Film Studio (1) & Jiangnan Film Studio (1) & 黎明影业公司 (1)","Acting","Acting (7)",1949,"Shanghai (private)","True",30.984373963489443,121.14323522180412
198,"李家","Shanghai (private)","Wenhua Film Company (1)","Acting","Acting (1)",1949,"Shanghai (private)","True",30.321444457085924,122.08166477318332
199,"钟高年","Shanghai (private)","Wenhua Film Company (1)","Acting","Acting (1)",1949,"Shanghai (private)","True",30.753129044258742,122.17253384388954
200,"薛容","Shanghai (private)","Wenhua Film Company (1)","Acting","Acting (1)",1949,"Shanghai (private)","True",30.119929568730644,121.82363474740956
201,"罗森","Shanghai (private)","Wenhua Film Company (1) & Changjiang Film Studio (1)","Acting","Acting (2)",1949,"Shanghai (private)","True",31.758308448174777,121.41081843735165
202,"许琦","Shanghai (state)","Wenhua Film Company (6) & Shanghai Film Studio (3) & Haiyan Film Studio (10) & Jiangsu Film Studio (1) & Tianma Film Studio (2)","摄影","摄影 (19) & 摄影顾问 (1) & 剪辑 (1)",1949,"Shanghai (private)","True",30.43511614595752,121.14753737835481
203,"郑小秋","Shanghai (private)","Datong Film Company (2)","Director","Director (2)",1949,"Shanghai (private)","True",31.413102315851265,121.5161679466421
204,"田汉","Shanghai (private)","Datong Film Company (1) & Jiangnan Film Studio (1) & Kunlun Film Company (1)","Scriptwriter","Scriptwriter (3)",1949,"Shanghai (private)","True",31.544566291347856,122.0368468333553
205,"吕玉堃","Shanghai (private)","Datong Film Company (2) & 新中华影业公司 (1) & 雷电影业公司 (1) & Guotai Film Company (1) & 启华影片公司 (Hong Kong) (1)","Acting","Acting (6)",1949,"Shanghai (private)","True",30.246705641407207,120.90487352053243
206,"陈正薇","Shanghai (private)","Datong Film Company (1)","Acting","Acting (1)",1949,"Shanghai (private)","True",31.123681521154428,121.47334091677972
207,"罗静宜","Shanghai (private)","Datong Film Company (7) & Tianma Film Studio (5)","Acting","Acting (12)",1949,"Shanghai (private)","True",31.300915140511464,122.05735877359537
208,"强明","Shanghai (state)","Datong Film Company (5) & Shanghai Film Studio (5) & Haiyan Film Studio (5) & Tianma Film Studio (1)","Acting","Acting (11) & 副导演 (3) & Director (3) & Scriptwriter (2)",1949,"Shanghai (private)","True",31.11599230598345,121.93868551238715
209,"朱琳","Shanghai (private)","Datong Film Company (5) & Kunlun Film Company (1) & Changchun Film Studio (1)","Acting","Acting (7)",1949,"Shanghai (private)","True",31.320353078800853,121.83948273862273
210,"周刍","Shanghai (private)","Datong Film Company (7) & Guotai Film Company (1) & Changchun Film Studio (1) & August First Film Studio (3) & 惠昌商务有限公司 (1)","Acting","Acting (13)",1949,"Shanghai (private)","True",31.38052074935575,122.01121328771706
211,"姜修","Shanghai (private)","Datong Film Company (1) & Kunlun Film Company (2) & Wenhua Film Company (2) & 新中华影业公司 (2) & Da Guangming Film Company (1) & Guotai Film Company (1) & 启华影片公司 (Hong Kong) (1)","Acting","Acting (9)",1949,"Shanghai (private)","True",30.542042784573795,121.09661067297057
212,"陈焰","Shanghai (private)","Datong Film Company (5) & Shanghai Film Studio (1) & Tianma Film Studio (3)","化妆","化妆 (9) & Acting (2)",1949,"Shanghai (private)","True",31.04791842415483,122.04282004858267
213,"潘锐","Shanghai (private)","Datong Film Company (1) & Wenhua Film Company (1) & Shanghai Film Studio (1)","Acting","Acting (3)",1949,"Shanghai (private)","True",31.907639483171813,121.62354162047612
214,"程又林","Shanghai (private)","Datong Film Company (1)","Acting","Acting (1)",1949,"Shanghai (private)","True",30.771908723285087,120.85625685992412
215,"于冲","Shanghai (state)","Datong Film Company (7) & Shanghai Film Studio (3) & Haiyan Film Studio (1) & Tianma Film Studio (10) & 新中华影业公司 (1) & 东华影业公司 (1) & Jiangsu Film Studio (1)","Acting","Acting (23)",1949,"Shanghai (private)","True",30.799697525962184,122.2687836900709
216,"姚思诚","Shanghai (private)","Datong Film Company (1) & Wenhua Film Company (1)","Acting","Acting (2)",1949,"Shanghai (private)","True",30.199892291930876,122.16894807010638
217,"冯奇","Shanghai (state)","Datong Film Company (3) & Shanghai Film Studio (5) & Jiangnan Film Studio (9) & Haiyan Film Studio (2) & Tianma Film Studio (7) & Guotai Film Company (2) & 中联影业公司 (Hong Kong) (1)","Acting","Acting (28) & 副导演 (1)",1949,"Shanghai (private)","True",31.15993342851315,122.17197158136813
218,"许垦","Shanghai (private)","Datong Film Company (1) & Guotai Film Company (4) & Tianma Film Studio (1) & Jiangnan Film Studio (1) & 华东影片经理公司 (1)","化妆","Acting (3) & 化妆 (4)",1949,"Shanghai (private)","True",32.02040066467419,120.85541927878074
219,"唐葭村","Shanghai (private)","Datong Film Company (2)","Acting","Acting (2)",1949,"Shanghai (private)","True",32.01252254594292,120.61042513186426
220,"陈月楼","Shanghai (private)","Datong Film Company (1)","评剧指导 | Acting","评剧指导 (1) & Acting (1)",1949,"Shanghai (private)","True",30.47541321106882,120.64647182521044
221,"虞禹方","Shanghai (private)","Datong Film Company (1)","Acting","Acting (1)",1949,"Shanghai (private)","True",31.139045013072018,121.10494813942096
222,"吴涛","Shanghai (state) / Shanghai (private)","Datong Film Company (1) & Shanghai Film Studio (1)","Acting","Acting (2)",1949,"Shanghai (private)","True",-0.3420210458591135,-0.21390636934375173
223,"夏冬","Shanghai (private)","Datong Film Company (5) & Kunlun Film Company (2) & Changjiang-Kunlun Associated Film Studio (1)","剧务 | Acting","Acting (6) & 剧务 (6)",1949,"Shanghai (private)","True",31.753774597380065,120.55397305353064
224,"钱麟童","Shanghai (private)","Datong Film Company (1)","Acting","Acting (1)",1949,"Shanghai (private)","True",30.48411411558443,120.91574984739692
225,"梁怨","Shanghai (private)","Datong Film Company (1)","Acting","Acting (1)",1949,"Shanghai (private)","True",31.192582890305502,121.84665761720836
226,"朱少泉","Shanghai (private)","Datong Film Company (1) & 新中华影业公司 (1) & Da Guangming Film Company (1) & Guotai Film Company (1)","Acting","Acting (3)",1949,"Shanghai (private)","True",30.494573620576816,120.36564937731639
227,"高扬","Shanghai (private)","Datong Film Company (1) & Guotai Film Company (3) & August First Film Studio (1) & 新中华影业公司 (1) & 雷电影业公司 (1)","Acting","Acting (7)",1949,"Shanghai (private)","True",31.53980844274494,120.26714410236409
228,"李季","Shanghai (state)","Datong Film Company (1) & Shanghai Film Studio (4) & Haiyan Film Studio (1) & 嘉年影业公司 (1) & 华侨影业公司 (Hong Kong) (1)","Acting","Acting (8)",1949,"Shanghai (private)","True",31.89082357221011,121.77823605721258
229,"黄芳","Shanghai (private)","Datong Film Company (2)","Acting | 场记","Acting (1) & 场记 (1)",1949,"Shanghai (private)","True",30.595019490779304,120.29189466334753
230,"黄耐霜","Shanghai (private)","Datong Film Company (2) & Kunlun Film Company (2) & Jiangnan Film Studio (1) & Haiyan Film Studio (1) & 新中华影业公司 (1) & 惠昌商务有限公司 (1) & 中企影艺社 (1) & Guotai Film Company (1) & 华东影片经理公司 (1)","Acting","Acting (10)",1949,"Shanghai (private)","True",31.656368959893413,121.53350795421085
231,"胡德龙","Shanghai (private)","Datong Film Company (1) & Wenhua Film Company (2) & Tianma Film Studio (1)","Acting","Acting (4)",1949,"Shanghai (private)","True",30.775676062582136,121.5598187579153
232,"田恺","Shanghai (private)","Datong Film Company (1) & Wenhua Film Company (1)","Acting","Acting (2)",1949,"Shanghai (private)","True",30.33432020380874,120.99081925946841
233,"肖凡","Shanghai (private)","Datong Film Company (1)","Acting","Acting (1)",1949,"Shanghai (private)","True",30.392276709280026,121.51281308534664
234,"吕荣康","Shanghai (private)","Datong Film Company (1)","Acting","Acting (1)",1949,"Shanghai (private)","True",30.46070873062281,121.8785743411306
235,"曹龄青","Shanghai (private)","Datong Film Company (2)","Acting","Acting (2)",1949,"Shanghai (private)","True",30.437651824643225,121.23753588222395
236,"徐剑豪","Shanghai (private)","Datong Film Company (1)","Acting","Acting (1)",1949,"Shanghai (private)","True",31.25859176344788,121.34367522726723
237,"尚华","Shanghai (private)","Datong Film Company (1) & Shanghai Film Studio (1) & 中联影业公司 (Hong Kong) (1)","Acting","Acting (3)",1949,"Shanghai (private)","True",30.79964445807163,120.63494240302066
238,"罗从周","Shanghai (state)","Datong Film Company (6) & Shanghai Film Studio (5) & Haiyan Film Studio (11) & Hong Kong Dapeng Film Company (1) & Hong Kong Jinsheng Film Company (1) & 惠昌商务有限公司 (1)","摄影","摄影 (22) & 摄影顾问 (1)",1949,"Shanghai (private)","True",30.824412500530215,120.97703776891876
239,"董萍","Northeast","Datong Film Company (4) & Northeast Film Studio (1) & Changchun Film Studio (10)","布景","布景 (4) & 美工设计 (1) & 美工 (3) & 布景设计 (1) & 美术设计 (3) & Acting (1) & 美术 (2)",1949,"Shanghai (private)","True",43.42009758296585,125.29940951471927
240,"祁次欣","Shanghai (private)","Datong Film Company (1)","音乐","音乐 (1)",1949,"Shanghai (private)","True",30.6094119883591,121.26494416771924
241,"袁庆余","Shanghai (state)","Datong Film Company (5) & Kunlun Film Company (2) & Changjiang-Kunlun Associated Film Studio (1) & Tianma Film Studio (8) & Haiyan Film Studio (1)","录音","录音 (16)",1949,"Shanghai (private)","True",30.744844822502692,121.68038280745935
242,"姚守清","Shanghai (private)","Datong Film Company (6) & 惠昌商务有限公司 (1) & Changjiang Film Studio (1)","录音","录音 (8)",1949,"Shanghai (private)","True",31.632715696042645,121.61195380949741
243,"谢晋","Shanghai (state)","Datong Film Company (3) & Shanghai Film Studio (5) & Tianma Film Studio (7) & Changjiang Film Studio (1)","Director","副导演 (5) & Director (13) & Scriptwriter (4)",1949,"Shanghai (private)","True",31.319279239836234,121.37108016836403
244,"柳中亮","Shanghai (private)","Datong Film Company (3)","监制","监制 (3)",1949,"Shanghai (private)","True",30.70904685053945,121.79954556701354
245,"张石川","Shanghai (private)","Datong Film Company (6)","制片","制片 (6)",1949,"Shanghai (private)","True",31.480054324203216,120.7208910987726
246,"查祥康","Shanghai (state)","Datong Film Company (3) & Shanghai Film Studio (2) & Haiyan Film Studio (1) & Tianma Film Studio (12) & Hong Kong Jinsheng Film Company (1)","摄影","摄影助理 (2) & 副摄影 (1) & 摄影 (15)",1949,"Shanghai (private)","True",31.830845675330714,121.17282037214395
247,"刘永昌","Shanghai (private)","Datong Film Company (2) & Kunlun Film Company (2)","录音助理","录音助理 (4)",1949,"Shanghai (private)","True",30.481547532918825,120.25171309968476
248,"童景文","Northeast","Datong Film Company (4) & Changchun Film Studio (19)","美术设计","布景助理 (1) & 美工设计 (1) & 美术设计 (9) & 布景设计 (1) & 美术 (4) & 美工 (4) & 布景 (3)",1949,"Shanghai (private)","True",43.817503497132606,124.56334340344037
249,"张曦白","Shanghai (state)","Datong Film Company (3) & Shanghai Film Studio (7) & Shandong Film Studio (1) & Jiangnan Film Studio (3) & Haiyan Film Studio (8) & Anhui Film Studio (1) & Hong Kong Jinsheng Film Company (2) & Hong Kong Dapeng Film Company (2)","美工","绘景 (1) & 置景 (1) & 布景设计 (4) & 布景 (2) & 服装设计 (1) & 美工 (13)",1949,"Shanghai (private)","True",30.626696595943976,121.59956946803324
250,"陈瑞和","Shanghai (private)","Datong Film Company (6) & 惠昌商务有限公司 (1)","剪辑","剪接 (1) & 剪辑 (6)",1949,"Shanghai (private)","True",31.087446451354243,121.02456034501807
251,"赵家树","Shanghai (private)","Datong Film Company (4) & Shanghai Film Studio (1) & 惠昌商务有限公司 (1)","剪辑","剪接 (2) & 剪辑 (4)",1949,"Shanghai (private)","True",30.305695787484947,121.43805642021108
252,"严兆德","Shanghai (private)","Datong Film Company (6) & Kunlun Film Company (2) & Wenhua Film Company (2) & Changjiang-Kunlun Associated Film Studio (3) & Guotai Film Company (2) & 华东影片经理公司 (1) & Changjiang Film Studio (1) & Da Guangming Film Company (1)","洗印","洗印 (15) & 洗片 (2)",1949,"Shanghai (private)","True",31.66393413809657,121.91867424757311
253,"杭子玉","Shanghai (private)","Datong Film Company (6) & Kunlun Film Company (2) & Wenhua Film Company (2) & Changjiang-Kunlun Associated Film Studio (3) & 新中华影业公司 (1) & Guotai Film Company (2) & 华东影片经理公司 (1) & Changjiang Film Studio (1) & Da Guangming Film Company (1)","洗印","洗印 (16) & 印片 (2)",1949,"Shanghai (private)","True",30.844817958495913,121.15907066521814
254,"陈重","Shanghai (private)","Datong Film Company (4) & Kunlun Film Company (1)","剧务 | Acting","剧务 (3) & Acting (3)",1949,"Shanghai (private)","True",31.7506647284351,122.13442294293665
255,"何品芳","Shanghai (private)","Datong Film Company (4)","道具","道具 (4)",1949,"Shanghai (private)","True",31.05330654665809,120.94237091101918
256,"金鹤良","Shanghai (private)","Datong Film Company (5)","服装","服装 (5)",1949,"Shanghai (private)","True",30.08860714611551,121.85845015041993
257,"颜碧丽","Shanghai (state)","Datong Film Company (5) & Shanghai Film Studio (1) & Haiyan Film Studio (8)","场记 | 导演助理","场记 (4) & 助理导演 (2) & 导演助理 (4) & 副导演 (2) & Director (1) & Acting (2)",1949,"Shanghai (private)","True",31.420858725103272,121.88703107584077
258,"徐应生","Shanghai (private)","Datong Film Company (6)","场务","场务 (6)",1949,"Shanghai (private)","True",30.141709237918047,122.0589165152988
259,"薛根宝","Shanghai (private)","Datong Film Company (7)","布景","陈设 (2) & 道具 (2) & 布景 (3)",1949,"Shanghai (private)","True",30.89930060936933,122.08744475062902
260,"郑君里","Shanghai (state)","Kunlun Film Company (2) & Shanghai Film Studio (1) & Haiyan Film Studio (4)","Director","Director (7) & Scriptwriter (4)",1949,"Shanghai (private)","True",30.950257909384444,121.64284959871308
261,"沈浮","Shanghai (state)","Kunlun Film Company (2) & Changjiang-Kunlun Associated Film Studio (1) & Shanghai Film Studio (2) & Haiyan Film Studio (5) & Tianma Film Studio (1)","Director","Scriptwriter (6) & Director (8)",1949,"Shanghai (private)","True",32.00563235137895,120.97264499475642
262,"王林谷","Shanghai (state) / Shanghai (private)","Kunlun Film Company (2) & Shanghai Film Studio (2)","制片主任","Scriptwriter (1) & 制片主任 (2) & 制作主任 (1) & Director (1)",1949,"Shanghai (private)","True",0.10229661762832243,-0.10801439468442275
263,"徐韬","Shanghai (state)","Kunlun Film Company (1) & Shanghai Film Studio (2) & Northeast Film Studio (1) & Haiyan Film Studio (9) & Pearl River Film Studio (1)","Director","Scriptwriter (4) & Director (12)",1949,"Shanghai (private)","True",31.505699509771915,121.58470518186316
264,"赵丹","Shanghai (state)","Kunlun Film Company (6) & Changjiang-Kunlun Associated Film Studio (1) & Shanghai Film Studio (2) & Haiyan Film Studio (7) & Tianma Film Studio (1) & Beijing Film Studio (1)","Acting","Scriptwriter (3) & Acting (14) & Director (3)",1949,"Shanghai (private)","True",31.4196325515907,121.79920836364037
265,"陈白尘","Shanghai (state) / Shanghai (private)","Kunlun Film Company (1) & Shanghai Film Studio (1)","Scriptwriter","Scriptwriter (2)",1949,"Shanghai (private)","True",0.5659251221252819,-0.7886083950679867
266,"魏鹤龄","Shanghai (state)","Kunlun Film Company (2) & Wenhua Film Company (1) & Datong Film Company (1) & Changjiang-Kunlun Associated Film Studio (1) & Shanghai Film Studio (3) & Beijing Film Studio (3) & Haiyan Film Studio (5) & Jiangnan Film Studio (1) & Tianma Film Studio (3) & 惠昌商务有限公司 (1) & Guotai Film Company (2) & 中央电影摄影场二厂 (1) & 中企影艺社 (1)","Acting","Acting (25)",1949,"Shanghai (roc) / Shanghai (private)","True",31.997595418355402,120.51404398626609
267,"黄宗英","Shanghai (state) / Shanghai (private)","Kunlun Film Company (5) & Changjiang-Kunlun Associated Film Studio (1) & Shanghai Film Studio (1) & Haiyan Film Studio (3) & Tianma Film Studio (2) & 中央电影摄影场二厂 (1)","Acting","Acting (9) & Scriptwriter (3)",1949,"Shanghai (private)","True",0.560415399942159,0.6421394189459364
268,"上官云珠","Shanghai (state)","Kunlun Film Company (4) & Wenhua Film Company (1) & Changjiang-Kunlun Associated Film Studio (2) & Shanghai Film Studio (1) & Tianma Film Studio (5) & Haiyan Film Studio (2) & Beijing Film Studio (1)","Acting","Acting (15) & 解说 (1)",1949,"Shanghai (private)","True",31.556435882529172,122.34932332847126
269,"孙道临","Shanghai (state)","Kunlun Film Company (2) & Beijing Film Studio (3) & Shanghai Film Studio (5) & Jiangnan Film Studio (1) & Haiyan Film Studio (3) & Jiangsu Film Studio (1) & Tianma Film Studio (1) & August First Film Studio (1) & 远东影业公司 (1)","Acting","Acting (16) & 解说 (1)",1949,"Shanghai (private)","True",30.354329044231687,121.01172859041174
270,"李天济","Shanghai (state)","Kunlun Film Company (1) & Shanghai Film Studio (1) & Haiyan Film Studio (4) & Tianma Film Studio (1)","Scriptwriter","Acting (3) & Scriptwriter (4)",1949,"Shanghai (private)","True",30.325081824798385,121.07787707688243
271,"王蓓","Shanghai (state)","Kunlun Film Company (4) & Northeast Film Studio (1) & Changjiang-Kunlun Associated Film Studio (1) & Shanghai Film Studio (2) & Tianma Film Studio (1) & Haiyan Film Studio (5) & Pearl River Film Studio (1)","Acting","Acting (15)",1949,"Shanghai (private)","True",31.423679980563342,122.4490384744797
272,"吴茵","Shanghai (private)","Kunlun Film Company (7) & Changjiang-Kunlun Associated Film Studio (2) & Shanghai Film Studio (3) & Haiyan Film Studio (1) & Tianma Film Studio (2) & 远东影业公司 (1) & Wenhua Film Company (1)","Acting","Acting (17)",1949,"Shanghai (private)","True",30.379697364227358,121.44798134489974
273,"苗振华","Shanghai (state)","Kunlun Film Company (1) & Shanghai Film Studio (2) & 中央电影摄影场一厂 (1)","摄影","摄影 (4)",1949,"Shanghai (roc) / Shanghai (private)","True",31.42271969837929,121.81476339953218
274,"胡振华","Shanghai (private)","Kunlun Film Company (4) & Changjiang-Kunlun Associated Film Studio (1)","摄影","摄影 (5)",1949,"Shanghai (private)","True",31.770118480487255,120.81782544668373
275,"牛葆荣","Shanghai (private)","Kunlun Film Company (6) & Changjiang-Kunlun Associated Film Studio (1) & Shanghai Film Studio (1) & Jiangnan Film Studio (1) & Tianma Film Studio (1)","美术","美术 (4) & 衬景 (1) & 绘景 (3) & 布景 (1) & 布景助理 (1)",1949,"Shanghai (private)","True",31.143524906600177,121.96897449394352
276,"徐子诚","Shanghai (private)","Kunlun Film Company (2)","美术","美术 (2)",1949,"Shanghai (private)","True",31.188766500720835,120.72212562241141
277,"王云阶","Shanghai (state)","Kunlun Film Company (4) & Shanghai Film Studio (4) & Northeast Film Studio (1) & Beijing Film Studio (1) & Jiangnan Film Studio (4) & Haiyan Film Studio (10) & Tianma Film Studio (1) & Datong Film Company (1) & Wenhua Film Company (1)","作曲","音乐 (6) & Acting (1) & 作曲 (16) & 指挥 (5)",1949,"Shanghai (private)","True",31.865192955500287,121.09631562568187
278,"李烈鸿","Shanghai (state) / Shanghai (private)","Kunlun Film Company (2) & Changjiang-Kunlun Associated Film Studio (2) & Shanghai Film Studio (2) & Haiyan Film Studio (1) & Tianma Film Studio (1) & Pearl River Film Studio (1)","录音","录音 (9)",1949,"Shanghai (private)","True",-0.5973301597971818,0.012762560042228088
279,"邬延芳","Shanghai (private)","Kunlun Film Company (1)","剪辑","剪辑 (1)",1949,"Shanghai (private)","True",31.820127205107948,121.38202600750759
280,"赵明","Shanghai (state)","Kunlun Film Company (2) & Shanghai Film Studio (4) & Changchun Film Studio (2) & Jiangnan Film Studio (3) & Haiyan Film Studio (2) & Xinjiang Film Studio (1) & Tianma Film Studio (2)","Director","Director (10) & Scriptwriter (5) & 副导演 (1)",1949,"Shanghai (private)","True",32.057750914814505,122.06197287768813
281,"严恭","Northeast","Kunlun Film Company (2) & Northeast Film Studio (2) & Changchun Film Studio (9)","Director","Director (11) & Scriptwriter (2) & Acting (1)",1949,"Shanghai (private)","True",44.51787128254205,126.289282698851
282,"阳翰笙","Shanghai (state) / Shanghai (private)","Kunlun Film Company (1) & Haiyan Film Studio (1)","Scriptwriter","Scriptwriter (2)",1949,"Shanghai (private)","True",-0.9772341582591717,-0.836321157669327
283,"王龙基","Shanghai (private)","Kunlun Film Company (1) & Changjiang Film Studio (1) & Changjiang-Kunlun Associated Film Studio (1) & Wenhua Film Company (1)","Acting","Acting (4)",1949,"Shanghai (private)","True",30.354830299341074,121.47586229775673
284,"林榛","Shanghai (private)","Kunlun Film Company (1) & Wenhua Film Company (6) & Tianma Film Studio (2) & Jiangnan Film Studio (1) & 黎明影业公司 (1) & 惠昌商务有限公司 (1) & Datong Film Company (2) & Guotai Film Company (2)","Acting","Acting (16)",1949,"Shanghai (private)","True",30.65820901170856,121.52019248175928
285,"关宏达","Shanghai (private)","Kunlun Film Company (1) & Guotai Film Company (3) & Shanghai Film Studio (2) & Haiyan Film Studio (3) & Tianma Film Studio (5) & Jiangnan Film Studio (2) & 中企影艺社 (1) & 华光影业制片厂 (1) & 嘉年影业公司 (3) & Datong Film Company (2) & 新中华影业公司 (1) & 惠昌商务有限公司 (1) & 东华影业公司 (2) & 中央电影摄影场一厂 (1) & 中联影业公司 (Hong Kong) (1) & 中央电影摄影场二厂 (1) & 华星影业公司 (Hong Kong) (1)","Acting","Acting (31)",1949,"Shanghai (private)","True",31.164593796803466,120.69782129728358
286,"杜雷","Shanghai (private)","Kunlun Film Company (1) & Datong Film Company (1) & Guotai Film Company (1)","Acting","Acting (3)",1949,"Shanghai (private)","True",31.379126977816444,120.53548457618385
287,"黄晨","Shanghai (state)","Kunlun Film Company (3) & Changjiang-Kunlun Associated Film Studio (1) & Jiangnan Film Studio (2) & Haiyan Film Studio (4) & Hong Kong Jinsheng Film Company (1)","Acting","Acting (7) & 助理导演 (2) & 导演助理 (1)",1949,"Shanghai (private)","True",31.536055591915552,120.94210008612204
288,"程漠","Shanghai (private)","Kunlun Film Company (6)","Acting","Acting (6)",1949,"Shanghai (private)","True",31.480910269307014,120.49766120444195
289,"马飞","Hong Kong / Shanghai (private) / Canton","Kunlun Film Company (1) & Pearl River Film Studio (1) & Hong Kong Hongtu Film Company (1)","Scriptwriter | Acting","Acting (1) & Scriptwriter (1)",1949,"Shanghai (private)","True",-0.9032986552634596,0.0123571940186471
290,"孟树范","Shanghai (private)","Kunlun Film Company (1) & Wenhua Film Company (1)","Acting","Acting (2)",1949,"Shanghai (private)","True",30.10776287287891,121.94504438177596
291,"钱风","Shanghai (private)","Kunlun Film Company (1)","Acting","Acting (1)",1949,"Shanghai (private)","True",30.75111470945168,121.89394446677083
292,"陈光复","Shanghai (private)","Kunlun Film Company (1)","Acting","Acting (1)",1949,"Shanghai (private)","True",31.097475368012265,120.24230564314546
293,"冯继雄","Shanghai (private)","Kunlun Film Company (1) & Wenhua Film Company (1) & Guotai Film Company (2) & 惠昌商务有限公司 (1) & 华侨影业公司 (Hong Kong) (1)","Acting","Acting (6)",1949,"Shanghai (private)","True",30.525929825707507,121.35043587312663
294,"石炎","Shanghai (private)","Kunlun Film Company (2) & Wenhua Film Company (1)","Acting","Acting (3) & 剧务 (1)",1949,"Shanghai (private)","True",30.21135692409191,121.72395571464084
295,"岳勋烈","Shanghai (private)","Kunlun Film Company (1)","儿童辅导 | Acting","儿童辅导 (1) & Acting (1)",1949,"Shanghai (private)","True",30.658136661096936,120.32352733545753
296,"陈家松","Shanghai (state) / Shanghai (private)","Kunlun Film Company (1) & Shanghai Film Studio (1)","Acting","Acting (2)",1949,"Shanghai (private)","True",-0.9556913813217927,0.5346447881928429
297,"小涵","Shanghai (private)","Kunlun Film Company (1)","Acting","Acting (1)",1949,"Shanghai (private)","True",31.633823975383674,121.57772640691034
298,"薛敏","Shanghai (private)","Kunlun Film Company (1)","Acting","Acting (1)",1949,"Shanghai (private)","True",30.56064969239483,121.38318358359363
299,"洪骏","Shanghai (private)","Kunlun Film Company (1)","Acting","Acting (1)",1949,"Shanghai (private)","True",30.94792160777968,121.67005507817291
300,"姚姚","Shanghai (private)","Kunlun Film Company (1)","Acting","Acting (1)",1949,"Shanghai (private)","True",31.780435303856606,122.14964518426375
301,"陶冶","Shanghai (private)","Kunlun Film Company (1)","Acting","Acting (1)",1949,"Shanghai (private)","True",30.63188415868803,120.60109127160348
302,"龚伯安","Shanghai (state) / Shanghai (private)","Kunlun Film Company (1) & Shanghai Film Studio (1)","Acting","Acting (2)",1949,"Shanghai (private)","True",0.47183343898761687,0.36936441401941944
303,"苏鸿","Shanghai (roc) / Shanghai (private)","Kunlun Film Company (1) & 中央电影摄影场一厂 (2) & 华侨影业公司 (Hong Kong) (1)","Acting","Acting (4)",1949,"Shanghai (roc) / Shanghai (private)","True",-0.14886639785392486,0.49457836476310457
304,"宋衍万","Shanghai (private)","Kunlun Film Company (1)","Acting","Acting (1)",1949,"Shanghai (private)","True",30.307656435712882,121.7641014232338
305,"杨小乔","Shanghai (private)","Kunlun Film Company (1)","Acting","Acting (1)",1949,"Shanghai (private)","True",30.99345864030752,120.95903442892302
306,"王公序","Shanghai (state) / Shanghai (private)","Kunlun Film Company (1) & Shanghai Film Studio (1)","Acting","Acting (2)",1949,"Shanghai (private)","True",-0.5072297899676541,-0.14190869620918733
307,"丁然","Shanghai (state)","Kunlun Film Company (1) & Shanghai Film Studio (3) & Tianma Film Studio (10) & Haiyan Film Studio (1)","Acting","Acting (10) & Scriptwriter (3) & 副导演 (1) & Director (1)",1949,"Shanghai (private)","True",31.91544556065281,121.97319672132623
308,"刁光覃","Shanghai (private)","Kunlun Film Company (1)","Acting","Acting (1)",1949,"Shanghai (private)","True",30.771833411635498,121.18515426410163
309,"方伯","Shanghai (state)","Kunlun Film Company (1) & Shanghai Film Studio (4) & Jiangnan Film Studio (2) & Tianma Film Studio (3) & Changchun Film Studio (1) & 新时代影业公司 (Hong Kong) (1) & 嘉年影业公司 (2) & 华侨影业公司 (Hong Kong) (1) & 中央电影摄影场二厂 (1) & Wenhua Film Company (1)","Acting","Acting (15) & 助理导演 (3)",1949,"Shanghai (private)","True",30.45999383799356,121.93644003808429
310,"顾鍪","Shanghai (private)","Kunlun Film Company (1)","Acting","Acting (1)",1949,"Shanghai (private)","True",30.609646028826983,121.08499307553924
311,"何学初","Shanghai (private)","Kunlun Film Company (1) & Wenhua Film Company (2) & 黎明影业公司 (1) & 中央电影摄影场二厂 (1)","Acting","Acting (4) & 剧务 (1)",1949,"Shanghai (private)","True",30.130048067808822,122.02250981758753
312,"孙仪","Shanghai (private)","Kunlun Film Company (1) & Wenhua Film Company (1)","Acting","Acting (2)",1949,"Shanghai (private)","True",31.79411499640926,121.6677590407732
313,"莫愁","Shanghai (state)","Kunlun Film Company (1) & Northeast Film Studio (2) & Shanghai Film Studio (3) & Haiyan Film Studio (1) & Jiangnan Film Studio (1) & Wenhua Film Company (2) & Guotai Film Company (1)","Acting","Acting (10) & Scriptwriter (1)",1949,"Shanghai (private)","True",31.414655190553475,120.95521503460574
314,"柳杰","Shanghai (state)","Kunlun Film Company (1) & Shanghai Film Studio (4) & Jiangnan Film Studio (3) & Haiyan Film Studio (4) & Tianma Film Studio (2) & 远东影业公司 (1) & Datong Film Company (1)","Acting","Acting (15)",1949,"Shanghai (private)","True",31.65847385156424,121.57811998348986
315,"马中婴","Shanghai (private)","Kunlun Film Company (1)","Acting","Acting (1)",1949,"Shanghai (private)","True",30.74933525913742,120.9991287540085
316,"钱理群","Shanghai (private)","Kunlun Film Company (1)","Acting","Acting (1)",1949,"Shanghai (private)","True",30.595319186482616,121.2729166980978
317,"中叔皇","Shanghai (state)","Kunlun Film Company (4) & Changjiang-Kunlun Associated Film Studio (3) & Shanghai Film Studio (2) & Jiangnan Film Studio (6) & Tianma Film Studio (4) & Changchun Film Studio (2)","Acting","Acting (21)",1949,"Shanghai (private)","True",31.133530922254014,120.49564679312299
318,"王静安","Shanghai (state)","Kunlun Film Company (2) & Shanghai Film Studio (3) & Jiangnan Film Studio (1) & Haiyan Film Studio (2) & Changchun Film Studio (1) & Moscow Film Studio (1)","Acting","Acting (9)",1949,"Shanghai (private)","True",30.386257592611184,122.253748344474
319,"朱莎","Shanghai (private)","Kunlun Film Company (1) & Shanghai Film Studio (1) & Jiangnan Film Studio (3) & Haiyan Film Studio (2) & Tianma Film Studio (3) & 惠昌商务有限公司 (1) & Guotai Film Company (4) & Datong Film Company (1) & 嘉华影业公司 (1) & 大华电影企业公司 (1) & 华东影片经理公司 (1)","Acting","Acting (18)",1949,"Shanghai (private)","True",30.50957978518336,120.96405897190628
320,"沙莉","Shanghai (private)","Kunlun Film Company (2) & Shanghai Film Studio (2) & Haiyan Film Studio (3) & Tianma Film Studio (1) & 黎明影业公司 (1) & 远东影业公司 (1) & Datong Film Company (2) & Changjiang Film Studio (1) & Guotai Film Company (1)","Acting","Acting (14)",1949,"Shanghai (private)","True",31.569482459705007,121.37647977419891
321,"阮斐","Shanghai (private)","Kunlun Film Company (2) & 华侨影业公司 (Hong Kong) (2)","Acting","Acting (4)",1949,"Shanghai (private)","True",30.764231439843723,121.1775896916842
322,"林子丹","Shanghai (private)","Kunlun Film Company (1)","Acting","Acting (1)",1949,"Shanghai (private)","True",30.613029681707484,120.6107164297888
323,"金淑芝","Shanghai (private)","Kunlun Film Company (1)","Acting","Acting (1)",1949,"Shanghai (private)","True",30.10680946238635,120.9907682054496
324,"林默予","Shanghai (private)","Kunlun Film Company (1) & Guotai Film Company (2) & Changchun Film Studio (1) & Datong Film Company (2) & Da Guangming Film Company (1)","Acting","Acting (7)",1949,"Shanghai (private)","True",31.721788980965492,120.75034678708118
325,"奇梦石","Shanghai (private)","Kunlun Film Company (4) & Changjiang-Kunlun Associated Film Studio (3) & Shanghai Film Studio (2)","Acting","Acting (9)",1949,"Shanghai (private)","True",30.697696509804942,120.51299225668255
326,"徐曼","Shanghai (private)","Kunlun Film Company (1) & Guotai Film Company (5) & Haiyan Film Studio (1) & Tianma Film Studio (1) & Xi'an Film Studio (1) & Datong Film Company (1) & 华东影片经理公司 (1)","Acting","Acting (10)",1949,"Shanghai (private)","True",30.80917501036087,121.17880449846517
327,"徐缓","Shanghai (private)","Kunlun Film Company (1) & 黎明影业公司 (1) & 中央电影摄影场一厂 (1)","Acting","Acting (3)",1949,"Shanghai (roc) / Shanghai (private)","True",30.30889852211639,121.31055099449897
328,"袁蓉","Shanghai (private)","Kunlun Film Company (1) & 惠昌商务有限公司 (1)","Acting","Acting (2)",1949,"Shanghai (private)","True",30.853692162800662,120.91135589814425
329,"高正","Shanghai (state)","Kunlun Film Company (4) & Changjiang-Kunlun Associated Film Studio (2) & Shanghai Film Studio (3) & Haiyan Film Studio (12) & August First Film Studio (1)","Acting","Acting (18) & 制片主任 (1) & 副导演 (2) & Director (2) & Scriptwriter (1)",1949,"Shanghai (private)","True",30.381023264966522,121.2060775883108
330,"郭玲","Northeast","Kunlun Film Company (1) & Northeast Film Studio (3)","Acting","Acting (4)",1949,"Shanghai (private)","True",43.810053148692425,125.90457120430597
331,"黄温如","Shanghai (private)","Kunlun Film Company (1) & Wenhua Film Company (1)","Acting","Acting (2)",1949,"Shanghai (private)","True",31.37808509511688,120.3224032218612
332,"梁明","Shanghai (private)","Kunlun Film Company (1) & Wenhua Film Company (5) & Shanghai Film Studio (1) & Haiyan Film Studio (2) & Tianma Film Studio (1) & Datong Film Company (3) & 华侨影业公司 (Hong Kong) (1)","Acting","Acting (14)",1949,"Shanghai (private)","True",30.878041047094875,120.93319192153218
333,"高依云","Shanghai (state)","Kunlun Film Company (2) & Changjiang-Kunlun Associated Film Studio (1) & Shanghai Film Studio (2) & Jiangnan Film Studio (1) & Haiyan Film Studio (2)","Acting","Acting (8)",1949,"Shanghai (private)","True",32.049126934768324,122.0294897440713
334,"许蓝","Northeast","Kunlun Film Company (1) & Beijing Film Studio (1) & Northeast Film Studio (1) & Changchun Film Studio (7)","Acting","Acting (10)",1949,"Shanghai (private)","True",43.403532032736955,125.02465885492397
335,"章曼苹","Shanghai (private)","Kunlun Film Company (1) & Wenhua Film Company (2)","Acting","Acting (3)",1949,"Shanghai (private)","True",30.36372851320322,121.79051847704802
336,"张乾","Shanghai (private)","Kunlun Film Company (6) & Changjiang-Kunlun Associated Film Studio (2) & Shanghai Film Studio (2) & Haiyan Film Studio (1) & Jiangnan Film Studio (1)","Acting","Acting (12)",1949,"Shanghai (private)","True",31.147024070853565,120.41661852052461
337,"张婉","Shanghai (state)","Kunlun Film Company (1) & Jiangnan Film Studio (3)","Acting","Acting (4)",1949,"Shanghai (private)","True",31.383047303605107,121.09671846730215
338,"张逸生","Beijing","Kunlun Film Company (1) & Beijing Film Studio (4) & August First Film Studio (1) & Datong Film Company (1)","Acting","Acting (6) & 副导演 (1)",1949,"Shanghai (private)","True",39.993445107759264,116.45138030648445
339,"傅惠珍","Shanghai (state)","Kunlun Film Company (1) & Shanghai Film Studio (4) & Jiangnan Film Studio (4) & 嘉年影业公司 (2)","Acting","Acting (11)",1949,"Shanghai (private)","True",31.721117931352406,120.54691892034722
340,"张庆芬","Shanghai (state)","Kunlun Film Company (1) & Shanghai Film Studio (3) & Haiyan Film Studio (2) & Tianma Film Studio (1)","Acting","Acting (6) & Scriptwriter (1)",1949,"Shanghai (private)","True",31.37374275667858,122.06054746942793
341,"程梦莲","Shanghai (private)","Kunlun Film Company (1)","Acting","Acting (1)",1949,"Shanghai (private)","True",31.632712836244398,122.14311432730548
342,"农中南","Shanghai (private)","Kunlun Film Company (1) & Wenhua Film Company (1) & Shanghai Film Studio (1)","Acting","Acting (3)",1949,"Shanghai (private)","True",31.086784606050852,120.97339977866707
343,"汪漪","Shanghai (state)","Kunlun Film Company (1) & Shanghai Film Studio (3) & Haiyan Film Studio (1) & Jiangnan Film Studio (1) & 中企影艺社 (1) & Datong Film Company (1)","Acting","Acting (8)",1949,"Shanghai (private)","True",31.82614544969986,121.78633356688307
344,"熊伟","Beijing / Shanghai (private)","Kunlun Film Company (1) & Beijing Film Studio (1)","Acting | 制片主任","Acting (1) & 制片主任 (1)",1949,"Shanghai (private)","True",-0.3881721239749816,0.5723589530385478
345,"关鹏","Shanghai (private)","Kunlun Film Company (3) & Pearl River Film Studio (1) & Guotai Film Company (1)","Acting","Acting (5)",1949,"Shanghai (private)","True",31.171975847274865,121.57980789483454
346,"应萱","Shanghai (private)","Kunlun Film Company (1)","Acting","Acting (1)",1949,"Shanghai (private)","True",30.84724358551784,121.76851973280162
347,"蓝优心","Shanghai (private)","Kunlun Film Company (1)","Acting","Acting (1)",1949,"Shanghai (private)","True",30.415655909131416,120.4844356660969
348,"苏英","Shanghai (private)","Kunlun Film Company (1)","Acting","Acting (1)",1949,"Shanghai (private)","True",31.060710283141866,121.88948399237485
349,"苏茵","Shanghai (state)","Kunlun Film Company (1) & Shanghai Film Studio (1) & Haiyan Film Studio (1) & Tianma Film Studio (2)","Acting","Acting (5)",1949,"Shanghai (private)","True",31.033730191643873,120.69684405095032
350,"苏曼意","Shanghai (private)","Kunlun Film Company (1) & Datong Film Company (1) & 中央电影摄影场二厂 (1) & Guotai Film Company (3) & 华东影片经理公司 (1) & 华侨影业公司 (Hong Kong) (1) & Da Guangming Film Company (1)","Acting","Acting (8)",1949,"Shanghai (private)","True",31.805318856181678,120.70178739409383
351,"谭云","Shanghai (state)","Kunlun Film Company (1) & Shanghai Film Studio (4) & Haiyan Film Studio (6) & Tianma Film Studio (1)","Acting","Acting (11)",1949,"Shanghai (private)","True",31.137285958841314,121.29615258806278
352,"韩仲良","Northeast","Kunlun Film Company (4) & Northeast Film Studio (3) & Changchun Film Studio (3)","摄影","摄影 (10)",1949,"Shanghai (private)","True",44.752559370107285,125.09616223859318
353,"裘葛","Shanghai (private)","Kunlun Film Company (3) & Shanghai Film Studio (2)","摄影","摄影 (5)",1949,"Shanghai (private)","True",30.204924719130332,120.29664506790576
354,"张汉臣","Shanghai (state)","Kunlun Film Company (1) & Shanghai Film Studio (4) & Northeast Film Studio (2) & Tianma Film Studio (10) & 中企影艺社 (1) & 远东影业公司 (1)","美工","布景 (3) & 布景设计 (4) & 装置设计 (1) & 美工 (8) & 美术 (3)",1949,"Shanghai (private)","True",31.59838791264171,120.57353203271512
355,"林秉生","Shanghai (state)","Kunlun Film Company (1) & Shanghai Film Studio (6) & Jiangnan Film Studio (5) & Haiyan Film Studio (2)","录音","录音 (14)",1949,"Shanghai (private)","True",31.27860488246853,121.52116005598191
356,"韦布","Shanghai (state)","Kunlun Film Company (1) & Shanghai Film Studio (3) & Jiangnan Film Studio (2) & Wuhan Film Studio (1) & Pearl River Film Studio (2) & Hong Kong Hongtu Film Company (1)","制片","制片主任 (3) & 副制片主任 (2) & 制片 (4)",1949,"Shanghai (private)","True",31.280501057738707,121.37768754998788
357,"朱今明","Beijing","Kunlun Film Company (2) & Shanghai Film Studio (2) & Northeast Film Studio (1) & Shandong Film Studio (1) & Beijing Film Studio (8)","摄影","摄影顾问 (1) & 摄影 (12) & Scriptwriter (1) & Director (1)",1949,"Shanghai (private)","True",40.24908452115437,116.74221417101518
358,"郭弈辉","Shanghai (private)","Kunlun Film Company (1)","摄影助理","摄影助理 (1)",1949,"Shanghai (private)","True",31.38137150788292,120.81594662937638
359,"辛汉文","Northeast","Kunlun Film Company (2) & Northeast Film Studio (5)","造型设计","造型设计 (7)",1949,"Shanghai (private)","True",44.76096961726956,124.72557331670697
360,"罗雨秋","Shanghai (state)","Kunlun Film Company (1) & Shanghai Film Studio (3)","绘景","布景助理 (1) & 绘景 (2) & Acting (1) & 背景 (1)",1949,"Shanghai (private)","True",30.4265287347247,122.14465347640336
361,"刘广阶","Shanghai (state)","Kunlun Film Company (1) & Shanghai Film Studio (3) & Jiangnan Film Studio (3) & Haiyan Film Studio (6) & Anhui Film Studio (1) & Tianma Film Studio (1)","录音","录音助理 (3) & 录音 (10)",1949,"Shanghai (private)","True",31.617553078659558,121.0524928476389
362,"薛慎行","Beijing","Kunlun Film Company (1) & Central Newsreel and Documentary Film Studio (2)","录音","录音助理 (1) & 录音 (2)",1949,"Shanghai (private)","True",40.38959538880922,117.12482574051408
363,"丁伯和","Shanghai (state)","Kunlun Film Company (2) & Shanghai Film Studio (4) & Jiangnan Film Studio (3) & Tianma Film Studio (4) & 中央电影摄影场一厂 (1)","录音","配音 (2) & 录音 (12)",1949,"Shanghai (private)","True",31.824706706259622,120.73604829563374
364,"方徨","Shanghai (state)","Kunlun Film Company (1) & Shanghai Film Studio (3) & Jiangnan Film Studio (2) & Shandong Film Studio (1) & Pearl River Film Studio (1)","Director","剧务 (1) & 副导演 (2) & Director (5) & Scriptwriter (2)",1949,"Shanghai (private)","True",31.68231844881104,122.31891185571997
365,"徐少文","Shanghai (state) / Shanghai (private)","Kunlun Film Company (1) & Shanghai Film Studio (1)","剧务 | 场记","场记 (1) & 剧务 (1)",1949,"Shanghai (private)","True",0.7786669371378925,0.6119835079318345
366,"毅华","Shanghai (private)","Kunlun Film Company (1)","场务","场务 (1)",1949,"Shanghai (private)","True",31.38226269477513,121.3725726075635
367,"姚永福","Shanghai (state)","Kunlun Film Company (6) & Changjiang-Kunlun Associated Film Studio (2) & Shanghai Film Studio (1) & Haiyan Film Studio (10) & Tianma Film Studio (1) & Hong Kong Jinsheng Film Company (1)","化妆","化妆 (20)",1949,"Shanghai (private)","True",30.61903330485615,121.61570438903854
368,"乐羽侯","Shanghai (state)","Kunlun Film Company (1) & Shanghai Film Studio (6) & Haiyan Film Studio (11) & Tianma Film Studio (1) & Pearl River Film Studio (1) & Hong Kong Jinsheng Film Company (1) & Hong Kong Dapeng Film Company (1) & August First Film Studio (1)","化妆","化妆 (14) & 造型 (3) & Acting (1) & 造型设计 (1)",1949,"Shanghai (private)","True",30.58696183689377,121.09835627421265
369,"庄凯卢","Shanghai (private)","Kunlun Film Company (1)","道具","道具 (1)",1949,"Shanghai (private)","True",31.8864762410506,120.56895083799195
370,"陆伯勤","Shanghai (state)","Kunlun Film Company (1) & Shanghai Film Studio (1) & Haiyan Film Studio (1) & 中央电影摄影场二厂 (1)","服装","服装 (4)",1949,"Shanghai (roc) / Shanghai (private)","True",31.53515040538586,122.4458872211393
371,"傅正义","Beijing","Kunlun Film Company (5) & Changjiang-Kunlun Associated Film Studio (2) & Changchun Film Studio (1) & Beijing Film Studio (11) & Central Newsreel and Documentary Film Studio (1) & Hong Kong Dapeng Film Company (1) & Hong Kong Fanhua Film Company (1) & Xi'an Film Studio (1)","剪辑","剪接 (9) & 剪辑 (11)",1949,"Shanghai (private)","True",40.74633005646226,116.14898207430898
372,"周教大","Shanghai (private)","Kunlun Film Company (2)","洗印","洗印 (2)",1949,"Shanghai (private)","True",31.613228947218005,122.0440433719265
373,"徐而前","Shanghai (private)","Kunlun Film Company (1)","洗印","洗印 (1)",1949,"Shanghai (private)","True",31.78542315604639,121.89591364377294
374,"吴增荣","Shanghai (private)","Kunlun Film Company (2)","洗印","洗印 (2)",1949,"Shanghai (private)","True",30.358341502751323,121.20034896574357
375,"沙蒙","Northeast","Northeast Film Studio (2) & Shanghai Film Studio (1) & Changchun Film Studio (2) & Beijing Film Studio (1)","Director","Director (5) & Scriptwriter (2) & 艺术指导 (1)",1950,"Northeast","False",43.08157824164609,125.7134475722918
376,"石联星","Northeast","Northeast Film Studio (1) & Shanghai Film Studio (1) & Changchun Film Studio (1) & Moscow Film Studio (1)","Acting","Acting (2) & Director (1)",1950,"Northeast","False",43.75397338255265,124.96176423660683
377,"方荧","Northeast","Northeast Film Studio (1) & Beijing Film Studio (1) & Changchun Film Studio (6)","Director","Acting (2) & 副导演 (2) & Director (5) & Scriptwriter (1)",1950,"Northeast","False",43.70059069166633,125.5632403922859
378,"马路","Northeast","Northeast Film Studio (7) & Beijing Film Studio (2) & Tianjin Film Studio (1)","Acting","Acting (7) & 副导演 (2)",1950,"Northeast","False",43.612406130155975,125.82740497467604
379,"杜粹远","Northeast","Northeast Film Studio (2)","Acting","Acting (2)",1950,"Northeast","False",44.46337364282482,126.26925689283932
380,"刘文华","Northeast","Northeast Film Studio (2) & Shanghai Film Studio (1) & Changchun Film Studio (6) & Harbin Film Studio (1)","副导演","Acting (3) & 副导演 (5) & Director (1)",1950,"Northeast","False",42.93429226026656,125.63287870341485
381,"高平","Northeast","Northeast Film Studio (7) & Beijing Film Studio (4) & Changchun Film Studio (15) & Lanzhou Film Studio (1)","Acting","Acting (26)",1950,"Northeast","False",43.23033483210543,125.71116017394905
382,"庞泳汾","Northeast","Northeast Film Studio (2)","Acting","Acting (2)",1950,"Northeast","False",43.718443755056796,125.79837822309827
383,"尹一青","Northeast","Northeast Film Studio (4) & Changchun Film Studio (8)","Acting | Director","Acting (4) & 副导演 (3) & Scriptwriter (1) & Director (4)",1950,"Northeast","False",43.314529603614886,126.05489228753977
384,"方化","Northeast","Northeast Film Studio (3) & Beijing Film Studio (4) & Changchun Film Studio (11)","Acting","Acting (18)",1950,"Beijing / Northeast","False",43.84625349268215,124.49022452084454
385,"水航","Northeast","Northeast Film Studio (3) & Changchun Film Studio (3)","Acting","Acting (5) & 剧务主任 (2)",1950,"Northeast","False",43.597711668156435,125.40300239691803
386,"杨振淮","Beijing / Northeast","Northeast Film Studio (1) & August First Film Studio (1)","Acting","Acting (2)",1950,"Northeast","False",0.7653987690049893,0.3820063250135426
387,"步文令","Northeast","Northeast Film Studio (3)","Acting","Acting (3)",1950,"Northeast","False",44.735481948274725,124.89108294897439
388,"葛存壮","Beijing","Northeast Film Studio (3) & Changchun Film Studio (2) & Beijing Film Studio (14) & Tianjin Film Studio (1)","Acting","Acting (19)",1950,"Northeast","False",40.035203256161,116.86821457260108
389,"吴必克","Northeast","Northeast Film Studio (3) & Changchun Film Studio (10) & Harbin Film Studio (1)","Acting","Acting (13)",1950,"Northeast","False",44.57171325746948,124.50527692235501
390,"张凤侣","Northeast","Northeast Film Studio (1) & Changchun Film Studio (3)","录音","Acting (1) & 录音 (3)",1950,"Northeast","False",43.75766253078166,126.13192495780606
391,"张云芳","Beijing","Northeast Film Studio (1) & Central Newsreel and Documentary Film Studio (1) & Beijing Film Studio (1)","Acting","Acting (3)",1950,"Northeast","False",39.5507081658958,116.88782293578353
392,"庄焰","Northeast","Northeast Film Studio (5) & Changchun Film Studio (3)","Acting","Acting (8)",1950,"Northeast","False",44.44506560095441,125.87553395194325
393,"曲伟","Northeast","Northeast Film Studio (4) & Changchun Film Studio (4)","Acting","Acting (8)",1950,"Northeast","False",43.8525232655034,125.19790769814928
394,"吕万营","Xi'an","Northeast Film Studio (1) & Xi'an Film Studio (5)","剧务主任","Acting (1) & 剧务主任 (5)",1950,"Northeast","False",33.6895739724185,108.31120698440964
395,"杨文浩","Northeast","Northeast Film Studio (2) & Changchun Film Studio (5)","剧务主任","Acting (2) & 剧务主任 (4) & 制片主任 (1)",1950,"Northeast","False",44.151573360855316,125.47469859501824
396,"齐兴家","Northeast","Northeast Film Studio (2) & Changchun Film Studio (1)","Acting","Acting (2) & 场记 (1)",1950,"Northeast","False",43.75804696596548,126.01575015275637
397,"顾绍伯","Northeast","Northeast Film Studio (2)","Acting","Acting (2)",1950,"Northeast","False",44.727006009994184,125.85233227059955
398,"唐绍峰","Northeast","Northeast Film Studio (1)","Acting","Acting (1)",1950,"Northeast","False",44.59143101443472,124.78197133085952
399,"薛彦东","Northeast","Northeast Film Studio (2) & Beijing Film Studio (1) & Changchun Film Studio (3)","Acting","Acting (5) & Scriptwriter (1)",1950,"Northeast","False",43.65741518047142,126.00083823754176
400,"白德彰","Northeast","Northeast Film Studio (4) & Changchun Film Studio (10) & Xi'an Film Studio (2)","Acting","Acting (14)",1950,"Northeast","False",43.10815804219386,124.41524789073578
401,"任子华","Northeast","Northeast Film Studio (4) & Xi'an Film Studio (1) & Beijing Film Studio (1)","Acting","Acting (4) & 剧务主任 (1)",1950,"Northeast","False",43.7858410192987,125.19487959082107
402,"邱生田","Northeast","Northeast Film Studio (2)","Acting","Acting (2)",1950,"Northeast","False",44.34922626596673,125.31697261479196
403,"赵滋民","Northeast","Northeast Film Studio (6) & Changchun Film Studio (3) & Xi'an Film Studio (3)","Acting","Acting (12)",1950,"Northeast","False",44.56568101113578,126.04179614424268
404,"郑芳","Northeast","Northeast Film Studio (2)","Acting","Acting (2)",1950,"Northeast","False",43.63836573410864,124.78680213187216
405,"白永绥","Northeast","Northeast Film Studio (1)","Acting","Acting (1)",1950,"Northeast","False",44.21011546084067,125.07573839107962
406,"高钧","Northeast","Northeast Film Studio (1)","Acting","Acting (1)",1950,"Northeast","False",43.32391798952317,124.50658518031393
407,"吴蔚云","Shanghai (state)","Northeast Film Studio (4) & Beijing Film Studio (3) & Shanghai Film Studio (1) & Tianma Film Studio (2) & Haiyan Film Studio (2) & Hong Kong Changhong Film Company (1) & Kunlun Film Company (1)","摄影指导","摄影指导 (5) & 总摄影师 (1) & 总摄影 (2) & 摄影 (4) & 技术顾问 (1)",1949,"Shanghai (private)","True",31.150328983312114,122.0667837035278
408,"秦威","Beijing","Northeast Film Studio (1) & Beijing Film Studio (21) & Central Newsreel and Documentary Film Studio (3) & Hong Kong Dapeng Film Company (1) & Hong Kong Fanhua Film Company (2) & Changchun Film Studio (1)","美术","布景设计 (5) & 美工设计 (1) & 美工 (7) & 美术设计 (1) & 美术 (11) & 美术指导 (1)",1950,"Beijing","False",39.020187290191494,116.14810118434504
409,"阙敬修","Northeast","Northeast Film Studio (3) & Changchun Film Studio (14)","录音","录音 (17)",1950,"Northeast","False",44.63518710135979,124.66382930777431
410,"李树林","Northeast","Northeast Film Studio (5) & Changchun Film Studio (1)","照明","照明 (6)",1950,"Northeast","False",43.934050566001154,126.00879329476646
411,"田谦","Northeast","Northeast Film Studio (3)","特技","特技 (2) & 模型 (1)",1950,"Northeast","False",44.11330591276276,125.72606021979193
412,"贺靖","Northeast","Northeast Film Studio (5)","特技摄影","特技摄影 (4) & 摄影指导 (1)",1950,"Northeast","False",43.318539217785016,124.49053216441737
413,"刘朝元","Northeast","Northeast Film Studio (5) & Changchun Film Studio (2)","置景","置景 (7)",1950,"Northeast","False",44.09963034890617,125.38789247492876
414,"张翚","Northeast","Northeast Film Studio (1) & Changchun Film Studio (6) & Wenhua Film Company (1)","摄影","摄影助理 (1) & 摄影 (6) & Acting (1)",1949,"Shanghai (private)","True",44.204735514201936,125.67060052205441
415,"沙原","Northeast","Northeast Film Studio (5)","录音","音响 (1) & 录音 (4)",1950,"Northeast","False",44.56671468696727,126.06749588040864
416,"陈致远","Northeast","Northeast Film Studio (4) & Changchun Film Studio (6)","剧务主任","场记 (1) & 场务 (1) & 剧务组长 (1) & 剧务主任 (7)",1950,"Northeast","False",42.84865402206405,125.76954210804779
417,"许金元","Northeast","Northeast Film Studio (2)","场务","场务 (2)",1950,"Northeast","False",44.087077755158916,124.44410366060437
418,"马延芳","Northeast","Northeast Film Studio (2)","道具","道具 (2)",1950,"Northeast","False",43.56440639151105,125.87967031118811
419,"王冷","Northeast","Northeast Film Studio (2)","服装","服装 (2)",1950,"Northeast","False",43.01128280848503,125.41531880999173
420,"李秉申","Shanghai (state)","Northeast Film Studio (5) & Changchun Film Studio (1) & Shanghai Film Studio (11) & Tianma Film Studio (1)","指挥","指挥 (18)",1950,"Northeast","False",31.735276356084576,121.6289866066795
421,"孙谦","Northeast","Northeast Film Studio (3) & Shanghai Film Studio (2) & Beijing Film Studio (2) & Changchun Film Studio (2) & Haiyan Film Studio (1) & August First Film Studio (1)","Scriptwriter","Scriptwriter (11)",1950,"Shanghai (state) / Northeast","False",43.168769572714545,125.1905309830193
422,"李晓功","Northeast","Northeast Film Studio (5) & Changchun Film Studio (4)","Acting","Acting (9)",1950,"Northeast","False",44.07235968796374,124.9610107104013
423,"萧伶","Northeast","Northeast Film Studio (1)","Acting","Acting (1)",1950,"Northeast","False",44.57294604963823,124.7348598468604
424,"毕恒三","Northeast","Northeast Film Studio (2)","Acting","Acting (2)",1950,"Northeast","False",44.24315178564084,124.43707844916138
425,"羽奇","Northeast","Northeast Film Studio (2)","Acting","Acting (2)",1950,"Northeast","False",44.25462358201122,125.2487452638861
426,"吴淑琴","Northeast","Northeast Film Studio (2)","Acting","Acting (2)",1950,"Northeast","False",43.20989445921533,125.56401543920643
427,"阎德奎","Northeast","Northeast Film Studio (1)","摄影","摄影 (1)",1950,"Northeast","False",43.05295814050588,124.40150638931291
428,"塞克","Northeast","Northeast Film Studio (2)","作词","作词 (2)",1950,"Northeast","False",44.1118203966353,126.22154923604432
429,"石玉昆","Northeast","Northeast Film Studio (2)","音响","音响 (2)",1950,"Northeast","False",42.96063842328437,125.63289595144332
430,"单亦更","Northeast","Northeast Film Studio (6)","置景","置景 (5) & 制景 (1)",1950,"Northeast","False",42.86786318316629,124.48517394562923
431,"刘晶颖","Northeast","Northeast Film Studio (2)","服装","服装 (2)",1950,"Northeast","False",44.45014007207607,124.99487857411275
432,"杨静","Beijing","Northeast Film Studio (2) & Beijing Film Studio (6) & August First Film Studio (2)","Acting","Acting (10)",1950,"Northeast","False",38.97912783774435,115.6162361352847
433,"车毅","Northeast","Northeast Film Studio (4) & Beijing Film Studio (1) & Haiyan Film Studio (1) & August First Film Studio (1) & Changchun Film Studio (1)","Acting","Acting (8)",1950,"Northeast","False",44.100441977667685,124.72656541737426
434,"潘德民","Northeast","Northeast Film Studio (3) & Changchun Film Studio (6)","Acting","Acting (9)",1950,"Northeast","False",43.66344591520965,124.87176284489645
435,"孙晓雯","Northeast","Northeast Film Studio (2)","Acting","Acting (2)",1950,"Northeast","False",43.798681054134164,126.0384399543556
436,"凌元","Beijing","Northeast Film Studio (4) & Beijing Film Studio (8) & Changchun Film Studio (2) & August First Film Studio (2) & Tianjin Film Studio (1)","Acting","Acting (16)",1950,"Northeast","False",40.162866130392516,115.68130607504536
437,"巴立华","Northeast","Northeast Film Studio (3) & Changchun Film Studio (1) & Beijing Film Studio (3)","Acting","Acting (7)",1950,"Northeast","False",43.80879771991033,125.4277141412336
438,"王惠民","Shanghai (state)","Northeast Film Studio (3) & Shanghai Film Studio (1) & Haiyan Film Studio (3)","Acting","Acting (4) & 录音 (3)",1950,"Northeast","False",31.63336098680943,122.40193132211542
439,"刘学芝","Northeast","Northeast Film Studio (1)","Acting","Acting (1)",1950,"Northeast","False",43.07930377096122,125.25485520896456
440,"贺汝瑜","Northeast","Northeast Film Studio (3) & Beijing Film Studio (2) & Changchun Film Studio (7)","Acting","Acting (12)",1950,"Northeast","False",43.2157568835217,126.31353051120142
441,"曹竹林","Northeast","Northeast Film Studio (1) & Changchun Film Studio (2)","Acting | 制片 | 剧务主任","Acting (1) & 剧务主任 (1) & 制片 (1)",1950,"Northeast","False",43.30488224085347,126.2820291842436
442,"王慧娟","Northeast","Northeast Film Studio (1)","Acting","Acting (1)",1950,"Northeast","False",43.535523979651266,124.33579317834123
443,"刘玉蕴","Northeast","Northeast Film Studio (1)","Acting","Acting (1)",1950,"Northeast","False",44.46160643635605,125.40740745331327
444,"聂晶","Beijing","Northeast Film Studio (2) & Beijing Film Studio (14) & Changchun Film Studio (4) & Hong Kong Dapeng Film Company (1) & Xi'an Film Studio (1)","摄影","摄影 (20)",1950,"Northeast","False",40.390789617697074,116.40322269271259
445,"徐徐","Northeast","Northeast Film Studio (3) & Haiyan Film Studio (1)","作曲","作曲 (4)",1950,"Northeast","False",44.80314479087563,125.92498845117946
446,"林农","Northeast","Northeast Film Studio (4) & Shanghai Film Studio (2) & Changchun Film Studio (8) & Tianma Film Studio (1)","Director","副导演 (4) & Acting (4) & Director (9) & Scriptwriter (2)",1950,"Northeast","False",43.09436811576572,125.03493746182018
447,"邵云祥","Northeast","Northeast Film Studio (4)","置景","置景 (4)",1950,"Northeast","False",43.6353939185264,126.29778763852065
448,"郭甲东","Northeast","Northeast Film Studio (5) & Changchun Film Studio (8)","特技摄影","特技 (5) & 特技摄影 (8)",1950,"Northeast","False",43.86792698667,124.69645004092831
449,"李世佳","Northeast","Northeast Film Studio (2)","音响","音响 (2)",1950,"Northeast","False",44.57956327924593,124.65295330611846
450,"赵威","Northeast","Northeast Film Studio (1)","场记","场记 (1)",1950,"Northeast","False",43.8186380789874,125.64217073633455
451,"刘玉河","Northeast","Northeast Film Studio (2) & Changchun Film Studio (3) & Hong Kong Fanhua Film Company (1)","剧务 | 剧务主任","剧务 (2) & 剧务主任 (2) & 场记 (1)",1950,"Northeast","False",44.48881077908918,125.99056847480655
452,"王秀英","Xi'an","Northeast Film Studio (1) & Xi'an Film Studio (3)","服装","服装 (3) & Acting (1)",1950,"Northeast","False",34.66179050991055,108.12133441535377
453,"吴祖光","Beijing","Northeast Film Studio (1) & Beijing Film Studio (4) & Changchun Film Studio (1)","Director","Director (5) & Scriptwriter (3)",1950,"Northeast","False",40.78930759549648,116.52740202587104
454,"吕恩","Northeast","Northeast Film Studio (1)","Acting","Acting (1)",1950,"Northeast","False",43.52847006542381,124.62030350958244
455,"章薇","Northeast","Northeast Film Studio (2) & Changchun Film Studio (8)","Acting","Acting (10)",1950,"Northeast","False",42.8910886904405,125.8346755899697
456,"东方","Beijing / Northeast","Northeast Film Studio (2) & Beijing Film Studio (2) & Xi'an Film Studio (1)","Acting | 副导演","副导演 (2) & Acting (2) & Scriptwriter (1) & Director (1)",1950,"Northeast","False",-0.19326191731077413,-0.5695475799927878
457,"葛宝林","Northeast","Northeast Film Studio (1)","Acting","Acting (1)",1950,"Northeast","False",43.42622368937474,125.24601640354895
458,"常虹","Northeast","Northeast Film Studio (1)","Acting","Acting (1)",1950,"Northeast","False",43.02217051043068,125.9431925175121
459,"毕联录","Northeast","Northeast Film Studio (2) & Shanghai Film Studio (1)","Acting","Acting (3)",1950,"Northeast","False",43.837720256171494,124.3521678666386
460,"阎宝玉","Northeast","Northeast Film Studio (2)","Acting | 场务","Acting (1) & 场务 (1)",1950,"Northeast","False",43.97614683251697,126.29614856759983
461,"熊塞声","Beijing / Northeast","Northeast Film Studio (3) & Beijing Film Studio (5) & Changchun Film Studio (2)","Acting","Acting (10)",1950,"Northeast","False",0.9681508997137476,0.5371345672337917
462,"郝伟光","Northeast","Northeast Film Studio (6) & Changchun Film Studio (5)","剧务主任","剧务 (4) & Acting (1) & 场务 (1) & 剧务主任 (5) & 制片主任 (1)",1950,"Northeast","False",43.41630573842474,124.4350527137479
463,"赵酒如","Northeast","Northeast Film Studio (2)","Acting","Acting (2)",1950,"Northeast","False",44.71587242894746,125.5646403697113
464,"李万城","Northeast","Northeast Film Studio (5) & Changchun Film Studio (14)","Acting","Acting (19)",1950,"Northeast","False",44.599313080261496,125.84737335136063
465,"吕万莹","Northeast","Northeast Film Studio (2)","Acting","Acting (2) & 剧务 (1)",1950,"Northeast","False",44.34088425514779,126.23008165564877
466,"顾少伯","Northeast","Northeast Film Studio (2)","Acting","Acting (2)",1950,"Northeast","False",43.87751562378052,125.05325007888196
467,"汪滔","Northeast","Northeast Film Studio (3) & Shanghai Film Studio (1) & Changchun Film Studio (9) & Moscow Film Studio (1)","布景设计 | 美术设计","布景设计 (4) & 美术设计 (4) & 美术 (3) & 美工 (2)",1950,"Northeast","False",43.94785150582314,125.82756137550152
468,"李曦","Northeast","Northeast Film Studio (3) & Changchun Film Studio (3)","作曲","作曲 (6)",1950,"Northeast","False",43.77918230419674,124.82345944406912
469,"林秉成","Northeast","Northeast Film Studio (5) & Changchun Film Studio (12) & Emei Film Studio (1) & 雷电影业公司 (1)","录音","录音 (18)",1950,"Northeast","False",44.65959535459806,124.45909163931464
470,"杨明文","Northeast","Northeast Film Studio (2)","音响","音响 (2)",1950,"Northeast","False",43.378862898194726,125.55988863683284
471,"王颖","Northeast","Northeast Film Studio (2)","场记","场记 (2)",1950,"Northeast","False",44.77043246327762,125.74285683950063
472,"陈国栋","Northeast","Northeast Film Studio (3) & Changchun Film Studio (2)","道具","道具 (4) & 摄影助理 (1)",1950,"Northeast","False",43.799721446448615,125.3898476419841
473,"聂世祥","Northeast","Northeast Film Studio (2) & Changchun Film Studio (1)","道具","道具 (3)",1950,"Northeast","False",44.46332314812486,124.38733215260976
474,"孙羽","Northeast","Northeast Film Studio (1) & Shanghai Film Studio (1) & Changchun Film Studio (10)","Acting","Acting (12)",1950,"Northeast","False",44.61353150568906,124.52750391063212
475,"张锡奇","Northeast","Northeast Film Studio (3) & Beijing Film Studio (1) & Anhui Film Studio (1)","Acting","Acting (4)",1950,"Northeast","False",44.40786495466863,126.2200541868023
476,"徐连凯","Northeast","Northeast Film Studio (6) & Changchun Film Studio (7)","Acting","Acting (13)",1950,"Northeast","False",43.890346117367336,126.02017584773768
477,"胡朋","Beijing","Northeast Film Studio (3) & Beijing Film Studio (2) & Haiyan Film Studio (1) & August First Film Studio (3)","Acting","Acting (9)",1950,"Northeast","False",40.095948479390536,117.11574575932589
478,"王枫","Northeast","Northeast Film Studio (4) & Changchun Film Studio (9) & Xi'an Film Studio (1) & Hong Kong Fanhua Film Company (1)","Acting","Acting (9) & 副导演 (4) & 助理导演 (1)",1950,"Northeast","False",44.69868592375698,125.12417538527644
479,"张克","Northeast","Northeast Film Studio (2)","Acting","Acting (2)",1950,"Northeast","False",43.39636865788389,126.25629824055875
480,"赵万德","Beijing","Northeast Film Studio (4) & Beijing Film Studio (6) & Tianjin Film Studio (1)","Acting","Acting (10)",1950,"Northeast","False",40.056615111795196,116.32814296320213
481,"张越","Northeast","Northeast Film Studio (2)","Acting","Acting (2)",1950,"Northeast","False",43.67186339740526,125.72221866777349
482,"李林","Beijing","Northeast Film Studio (3) & Beijing Film Studio (7) & Changchun Film Studio (5) & August First Film Studio (6) & Xi'an Film Studio (1) & Xinjiang Film Studio (1)","Acting","Acting (16) & 录音 (6)",1950,"Northeast","False",39.89050403226159,116.70717025470961
483,"刘影","Northeast","Northeast Film Studio (3) & Beijing Film Studio (1)","Acting","Acting (4)",1950,"Northeast","False",44.31793031079026,124.50555178346282
484,"贺高英","Northeast","Northeast Film Studio (2) & Changchun Film Studio (1)","Acting","Acting (2) & 副导演 (1)",1950,"Northeast","False",44.55860504607987,124.78146091189329
485,"袁思达","Northeast","Northeast Film Studio (2) & Changchun Film Studio (1) & Beijing Film Studio (1)","Acting","Acting (4)",1950,"Northeast","False",43.27434890508482,126.24599086937097
486,"陈翔","Northeast","Northeast Film Studio (1) & Changchun Film Studio (3)","Acting","Acting (4)",1950,"Northeast","False",43.32579635756091,126.08383112488
487,"王春泉","Northeast","Northeast Film Studio (5) & Changchun Film Studio (11) & Emei Film Studio (1)","摄影","摄影 (16)",1950,"Northeast","False",43.701215196764416,125.20729310568892
488,"卢淦","Northeast","Northeast Film Studio (4) & Changchun Film Studio (6)","布景设计 | 美术","布景设计 (4) & 美术 (4) & 美术设计 (1) & 美工 (1)",1950,"Northeast","False",44.771977038063824,125.75300611057483
489,"张国昌","Northeast","Northeast Film Studio (5) & Changchun Film Studio (1)","作曲","作曲 (6)",1950,"Northeast","False",44.1234731506703,125.82821968534716
490,"陈述希","Northeast","Northeast Film Studio (2)","剧务 | 剧务主任","剧务 (1) & 剧务主任 (1)",1950,"Northeast","False",43.77522369232242,125.14482038207204
491,"李云明","Northeast","Northeast Film Studio (2)","置景","置景 (2)",1950,"Northeast","False",43.34740504537658,125.5450232280022
492,"崔仁杰","Northeast","Northeast Film Studio (4)","音响","音响 (3) & 剪接 (1)",1950,"Northeast","False",44.7275485518241,126.17148457820261
493,"金云鹏","Northeast","Northeast Film Studio (1)","道具","道具 (1)",1950,"Northeast","False",44.30832246294011,125.26200847521858
494,"赵永顺","Northeast","Northeast Film Studio (2)","道具","道具 (2)",1950,"Northeast","False",42.95392590360196,125.3820332279043
495,"项玉环","Northeast","Northeast Film Studio (2)","服装","服装 (2)",1950,"Northeast","False",43.83877545323784,126.00489501935837
496,"浦克","Northeast","Northeast Film Studio (5) & Beijing Film Studio (2) & Shanghai Film Studio (1) & Changchun Film Studio (20) & Moscow Film Studio (1)","Acting","Acting (28)",1950,"Northeast","False",43.29918237409681,124.39992148033323
497,"张福林","Northeast","Northeast Film Studio (3)","Acting","Acting (3)",1950,"Northeast","False",44.23917814523512,125.01241447352508
498,"齐家兴","Northeast","Northeast Film Studio (1)","Acting","Acting (1)",1950,"Northeast","False",43.60937457039886,126.16949237331528
499,"翟夫","Northeast","Northeast Film Studio (1)","Acting","Acting (1)",1950,"Northeast","False",43.48782495399523,125.80477718082584
500,"蔡振亚","Northeast","Northeast Film Studio (2) & Changchun Film Studio (9)","Director","场记 (2) & 副导演 (2) & Director (7) & Scriptwriter (1)",1950,"Northeast","False",44.570605829259264,125.77748865638534
501,"奕清浦","Northeast","Northeast Film Studio (1)","置景","置景 (1)",1950,"Northeast","False",43.94485105669828,124.61334680813086
502,"宋国毅","Xi'an","Northeast Film Studio (1) & Changchun Film Studio (5) & Xi'an Film Studio (8)","特技摄影","特技 (1) & 特技摄影 (13)",1950,"Northeast","False",34.616861562907744,109.12323658664462
503,"孙贵忠","Northeast","Northeast Film Studio (1) & Changchun Film Studio (1)","道具","道具 (2)",1950,"Northeast","False",44.48476846995628,125.96406479361175
504,"王玢瑞","Northeast","Northeast Film Studio (1) & Changchun Film Studio (3)","化妆","化妆 (4)",1950,"Northeast","False",42.881371857077454,126.10658249250035
505,"迈新","Northeast","Northeast Film Studio (1) & Changchun Film Studio (1) & Beijing Film Studio (1)","化妆","化妆 (3)",1950,"Northeast","False",44.134786880848324,125.1778682046384
506,"辛玉兰","Northeast","Northeast Film Studio (1)","服装","服装 (1)",1950,"Northeast","False",44.684236189777764,124.65861556658984
507,"林杉","Northeast","Northeast Film Studio (2) & Beijing Film Studio (1) & Changchun Film Studio (7) & Moscow Film Studio (1) & 惠昌商务有限公司 (1)","Scriptwriter","Scriptwriter (10) & Director (1) & Acting (1)",1950,"Beijing / Shanghai (private) / Northeast","True",44.50120734883289,125.08455010337822
508,"胡宗温","Northeast","Northeast Film Studio (1)","Acting","Acting (1)",1950,"Northeast","False",42.8465756114347,126.19666409296657
509,"陆小雅","Northeast","Northeast Film Studio (1) & Changchun Film Studio (1)","Acting","Acting (2)",1950,"Northeast","False",43.533754184394766,124.34221230939104
510,"常鸿","Northeast","Northeast Film Studio (1)","Acting","Acting (1)",1950,"Northeast","False",44.65630375575661,124.34700412490818
511,"阎德魁","Northeast","Northeast Film Studio (1)","摄影","摄影 (1)",1950,"Northeast","False",44.50778882239423,125.41266489590366
512,"常苏民","Northeast","Northeast Film Studio (1) & Changchun Film Studio (2) & Emei Film Studio (1)","作曲","作曲 (3) & 编曲 (1)",1950,"Northeast","False",43.233137831720185,126.16017511133138
513,"刘文晋","Northeast","Northeast Film Studio (1) & Changchun Film Studio (1) & August First Film Studio (1)","作曲","作曲 (3)",1950,"Northeast","False",43.49692818131495,125.46382958426858
514,"王瑞麟","Northeast","Northeast Film Studio (1)","制片主任","制片主任 (1)",1950,"Northeast","False",43.80869748547776,124.94974727047493
515,"孟建华","Northeast","Northeast Film Studio (1)","场务","场务 (1)",1950,"Northeast","False",44.06366695640841,125.25340740611858
516,"张亭","Northeast","Northeast Film Studio (1)","剧务","剧务 (1)",1950,"Northeast","False",44.075468600389776,124.6558409110432
517,"姚玉宝","Northeast","Northeast Film Studio (1) & Changchun Film Studio (7)","化妆","化妆 (8)",1950,"Northeast","False",43.413182528617774,125.3937736312457
518,"赵辉","Northeast","Northeast Film Studio (1)","道具","道具 (1)",1950,"Northeast","False",43.50703673027412,124.642149820318
519,"董晶葳","Northeast","Northeast Film Studio (2)","场记","场记 (2)",1950,"Northeast","False",43.8355783905983,126.30626676959982
520,"唐素维","Northeast","Northeast Film Studio (2)","剪接","剪接 (2)",1950,"Northeast","False",42.91332299169745,124.77467416342814
521,"吴永刚","Shanghai (state)","Northeast Film Studio (1) & Shanghai Film Studio (2) & Jiangnan Film Studio (1) & Haiyan Film Studio (2) & Hong Kong Dapeng Film Company (1) & Hong Kong Jinsheng Film Company (1) & 嘉年影业公司 (1)","Director","Director (7) & Scriptwriter (3) & 作词 (1)",1949,"Shanghai (private)","True",30.318801308855587,121.79384130224936
522,"袁文殊","Northeast","Northeast Film Studio (1)","Scriptwriter","Scriptwriter (1)",1950,"Northeast","False",42.91838363729406,125.13232202493174
523,"陈戈","Northeast","Northeast Film Studio (5) & Shanghai Film Studio (1) & Changchun Film Studio (6) & Beijing Film Studio (3) & August First Film Studio (1)","Acting","Acting (12) & Scriptwriter (3) & Director (4)",1950,"Northeast","False",43.60434402902056,124.9934565429418
524,"张禹","Northeast","Northeast Film Studio (2)","Acting","Acting (2)",1950,"Northeast","False",44.53466209099941,124.76399089557026
